id_mutation,date_mutation,numero_disposition,nature_mutation,valeur_fonciere,adresse_numero,adresse_suffixe,adresse_nom_voie,adresse_code_voie,code_postal,code_commune,nom_commune,code_departement,numero_volume,lot1_numero,lot1_surface_carrez,lot2_numero,lot2_surface_carrez,lot3_numero,lot3_surface_carrez,lot4_numero,lot4_surface_carrez,lot5_numero,lot5_surface_carrez,nombre_lots,code_type_local,type_local,surface_reelle_bati,nombre_pieces_principales,surface_terrain,longitude,latitude,section_prefixe,Anciennete_date_mutation
2023-1131627,2023-12-28,1,Vente,380000.0,384.0,,AV DE CLARET,1590,83000.0,83137,Toulon,83,,,,,,,,,,,,0,2.0,Appartement,64.0,4.0,220.0,5.92468,43.132227,000AN,799
2023-1131627,2023-12-28,1,Vente,380000.0,384.0,,AV DE CLARET,1590,83000.0,83137,Toulon,83,,,,,,,,,,,,0,2.0,Appartement,64.0,4.0,220.0,5.92468,43.132227,000AN,799
2023-1131627,2023-12-28,1,Vente,380000.0,384.0,,AV DE CLARET,1590,83000.0,83137,Toulon,83,,,,,,,,,,,,0,2.0,Appartement,64.0,4.0,220.0,5.92468,43.132227,000AN,799
2023-1131793,2023-12-29,1,Vente,300000.0,178.0,,RUE AMBROISE PARE,0175,83100.0,83137,Toulon,83,,,,,,,,,,,,0,1.0,Maison,70.0,3.0,371.0,5.970197,43.131217,000AT,798
2023-1131820,2023-12-28,1,Vente,410080.0,1290.0,J,COR EMILE FABRE,X019,83200.0,83137,Toulon,83,,,,,,,,,,,,0,1.0,Maison,80.0,4.0,95.0,5.920182,43.142224,000EW,799
2024-1008984,2024-01-08,1,Vente,258000.0,239.0,,CHE DE LA CARRAIRE,1215,83200.0,83137,Toulon,83,,,,,,,,,,,,0,1.0,Maison,66.0,3.0,1000.0,5.935942,43.16231,000ET,788
2024-1008988,2024-01-08,1,Vente,317570.0,6.0,,AV DES VIGNETTES,7235,83000.0,83137,Toulon,83,,,,,,,,,,,,0,1.0,Maison,48.0,3.0,88.0,5.941801,43.109213,000BV,788
2024-1009022,2024-01-08,1,Vente,278000.0,11.0,,RUE KLEBER,4185,83000.0,83137,Toulon,83,,,,,,,,,,,,0,1.0,Maison,65.0,3.0,210.0,5.950416,43.127816,000AR,788
2024-1009194,2024-01-11,1,Vente,480000.0,207.0,,RUE DE SAINT QUENTIN,6525,83100.0,83137,Toulon,83,,,,,,,,,,,,0,1.0,Maison,88.0,4.0,345.0,5.973072,43.13389,000AV,785
2024-1009198,2024-01-12,1,Vente,353140.0,41.0,,CHE BEAU SITE VALBERTRAND,0749,83200.0,83137,Toulon,83,,,,,,,,,,,,0,1.0,Maison,78.0,4.0,252.0,5.89108,43.136864,000DR,784
2024-1009235,2024-01-05,1,Vente,250000.0,90.0,,RUE DES BONNETTES,0970,83200.0,83137,Toulon,83,,,,,,,,,,,,0,1.0,Maison,70.0,4.0,455.0,5.922488,43.158137,000ES,791
2024-1009318,2024-01-08,1,Vente,480335.0,74.0,,IMP DE LA SARIETTE,6677,83200.0,83137,Toulon,83,,,,,,,,,,,,0,1.0,Maison,94.0,4.0,346.0,5.976368,43.13688,000AD,788
2024-1009396,2024-01-23,1,Vente,237000.0,120.0,,CHE DES ANTILLES,0330,83200.0,83137,Toulon,83,,,,,,,,,,,,0,1.0,Maison,64.0,2.0,209.0,5.888996,43.12735,000DM,773
2024-1009437,2024-01-18,1,Vente,182000.0,310.0,,CHE DU TEMPLE,6910,83200.0,83137,Toulon,83,,,,,,,,,,,,0,2.0,Appartement,31.0,2.0,174.0,5.908636,43.134776,000DK,778
2024-1009437,2024-01-18,1,Vente,182000.0,310.0,,CHE DU TEMPLE,6910,83200.0,83137,Toulon,83,,,,,,,,,,,,0,2.0,Appartement,31.0,2.0,174.0,5.908636,43.134776,000DK,778
2024-1009545,2024-01-23,1,Vente,408090.0,38.0,,IMP DES COLOMBES,1711,83200.0,83137,Toulon,83,,,,,,,,,,,,0,1.0,Maison,83.0,3.0,301.0,5.893864,43.13547,000DS,773
2024-1009548,2024-01-19,1,Vente,245000.0,25.0,,AV DES MOULINS,5335,83200.0,83137,Toulon,83,,,,,,,,,,,,0,2.0,Appartement,40.0,2.0,270.0,5.91285,43.139984,000DH,777
2024-1009559,2024-01-25,1,Vente,305000.0,412.0,,AV FORBIN,2893,83100.0,83137,Toulon,83,,,,,,,,,,,,0,1.0,Maison,97.0,5.0,173.0,5.96901,43.123616,000BD,771
2024-1009581,2024-01-26,1,Vente,315000.0,50.0,,CHE DE BLIDA,0925,83000.0,83137,Toulon,83,,,,,,,,,,,,0,1.0,Maison,60.0,4.0,236.0,5.9557,43.120371,000BP,770
2024-1009645,2024-01-11,1,Vente,297000.0,9009.0,,CHE DU VAL D AIGUES,7030,83200.0,83137,Toulon,83,,,,,,,,,,,,0,1.0,Maison,74.0,3.0,74.0,5.913904,43.152779,000EP,785
2024-1009652,2024-01-12,1,Vente,281866.0,118.0,,RUE SAINTE ROSELINE,6630,83200.0,83137,Toulon,83,,,,,,,,,,,,0,2.0,Appartement,58.0,2.0,334.0,5.910673,43.150537,000DX,784
2024-1009652,2024-01-12,1,Vente,281866.0,118.0,,RUE SAINTE ROSELINE,6630,83200.0,83137,Toulon,83,,,,,,,,,,,,0,2.0,Appartement,67.0,4.0,334.0,5.910673,43.150537,000DX,784
2024-1009797,2024-01-15,1,Vente,500000.0,202.0,,RUE GROIGNARD,3464,83200.0,83137,Toulon,83,,,,,,,,,,,,0,1.0,Maison,120.0,5.0,802.0,5.903292,43.141583,000DV,781
2024-1009812,2024-02-05,1,Vente,180200.0,9010.0,,IMP ARBOUSIERS,0380,83200.0,83137,Toulon,83,,,,,,,,,,,,0,2.0,Appartement,52.0,3.0,500.0,,,000DV,760
2024-1009812,2024-02-05,1,Vente,180200.0,9010.0,,IMP ARBOUSIERS,0380,83200.0,83137,Toulon,83,,,,,,,,,,,,0,2.0,Appartement,52.0,3.0,1489.0,,,000DV,760
2024-1009812,2024-02-05,1,Vente,180200.0,9010.0,,IMP ARBOUSIERS,0380,83200.0,83137,Toulon,83,,,,,,,,,,,,0,2.0,Appartement,33.0,2.0,1489.0,,,000DV,760
2024-1009812,2024-02-05,1,Vente,180200.0,9010.0,,IMP ARBOUSIERS,0380,83200.0,83137,Toulon,83,,,,,,,,,,,,0,2.0,Appartement,33.0,2.0,500.0,,,000DV,760
2024-1009872,2024-02-05,1,Vente,356454.0,832.0,,QUAI COMMANDANT RIVIERE,1835,83200.0,83137,Toulon,83,,,,,,,,,,,,0,1.0,Maison,100.0,5.0,236.0,5.907192,43.135605,000DK,760
2024-1009879,2024-02-02,1,Vente,380000.0,9003.0,,RUE BAUDELAIRE,0658,83000.0,83137,Toulon,83,,,,,,,,,,,,0,1.0,Maison,80.0,4.0,335.0,5.961138,43.115029,000BN,763
2024-1009885,2024-01-18,1,Vente,410000.0,409.0,,AV DE L ELISA,2545,83100.0,83137,Toulon,83,,,,,,,,,,,,0,1.0,Maison,78.0,3.0,173.0,5.966892,43.132694,000AT,778
2024-1009889,2024-02-01,1,Vente,265000.0,8.0,,RUE DUPLESSIS OLLIVAULT,2435,83000.0,83137,Toulon,83,,,,,,,,,,,,0,2.0,Appartement,45.0,2.0,225.0,5.9364,43.13213,000AO,764
2024-1009889,2024-02-01,1,Vente,265000.0,8.0,,RUE DUPLESSIS OLLIVAULT,2435,83000.0,83137,Toulon,83,,,,,,,,,,,,0,2.0,Appartement,52.0,3.0,225.0,5.9364,43.13213,000AO,764
2024-1009940,2024-01-31,1,Vente,214600.0,181.0,,RUE DU DAHOMEY,2030,83200.0,83137,Toulon,83,,,,,,,,,,,,0,1.0,Maison,56.0,3.0,228.0,5.888184,43.129023,000DP,765
2024-1009941,2024-01-23,1,Vente,276000.0,436.0,,CHE DE L ORATOIRE,5470,83200.0,83137,Toulon,83,,,,,,,,,,,,0,1.0,Maison,85.0,4.0,310.0,5.898073,43.144499,000EH,773
2024-1009948,2024-01-15,1,Vente,285000.0,9006.0,,IMP BIDON,0885,83000.0,83137,Toulon,83,,,,,,,,,,,,0,1.0,Maison,68.0,4.0,435.0,5.944722,43.126375,000AR,781
2024-1010007,2024-02-13,1,Vente,330000.0,1754.0,,BD JEAN BAPTISTE ABEL,3815,83000.0,83137,Toulon,83,,,,,,,,,,,,0,1.0,Maison,69.0,4.0,470.0,5.97946,43.112738,000BK,752
2024-1010046,2024-01-31,1,Vente,251827.17,181.0,,RUE DU DAHOMEY,2030,83200.0,83137,Toulon,83,,,,,,,,,,,,0,1.0,Maison,56.0,3.0,228.0,5.888184,43.129023,000DP,765
2024-1010067,2024-02-08,1,Vente,210000.0,38.0,,RUE DES RIAUX,6220,83000.0,83137,Toulon,83,,,,,,,,,,,,0,2.0,Appartement,41.0,2.0,58.0,5.931787,43.121687,000CN,757
2024-1010067,2024-02-08,1,Vente,210000.0,38.0,,RUE DES RIAUX,6220,83000.0,83137,Toulon,83,,,,,,,,,,,,0,2.0,Appartement,14.0,1.0,58.0,5.931787,43.121687,000CN,757
2024-1010067,2024-02-08,1,Vente,210000.0,38.0,,RUE DES RIAUX,6220,83000.0,83137,Toulon,83,,,,,,,,,,,,0,2.0,Appartement,41.0,2.0,58.0,5.931787,43.121687,000CN,757
2024-1010067,2024-02-08,1,Vente,210000.0,38.0,,RUE DES RIAUX,6220,83000.0,83137,Toulon,83,,,,,,,,,,,,0,2.0,Appartement,41.0,2.0,58.0,5.931787,43.121687,000CN,757
2024-1010067,2024-02-08,1,Vente,210000.0,38.0,,RUE DES RIAUX,6220,83000.0,83137,Toulon,83,,,,,,,,,,,,0,2.0,Appartement,30.0,2.0,58.0,5.931787,43.121687,000CN,757
2024-1010133,2024-02-16,1,Vente,385200.0,239.0,,RUE DU GABON,3098,83200.0,83137,Toulon,83,,,,,,,,,,,,0,1.0,Maison,83.0,3.0,500.0,5.887341,43.131067,000DP,749
2024-1010158,2024-02-08,1,Vente,410000.0,105.0,C,IMP RIGOUMEL,6248,83200.0,83137,Toulon,83,,,,,,,,,,,,0,1.0,Maison,111.0,4.0,739.0,5.907155,43.142154,000DV,757
2024-1010164,2024-01-30,1,Vente,400000.0,2.0,,AV CLAUDE FARRERE,1615,83000.0,83137,Toulon,83,,,,,,,,,,,,0,2.0,Appartement,112.0,4.0,285.0,5.950163,43.114253,000BR,766
2024-1010193,2024-02-14,1,Vente,320000.0,62.0,,RUE ALEXIS AGARRAT,0120,83200.0,83137,Toulon,83,,,,,,,,,,,,0,1.0,Maison,69.0,3.0,324.0,5.911647,43.14079,000DH,751
2024-1010240,2024-02-20,1,Vente,358000.0,244.0,,AV DE VERDUN,7115,83100.0,83137,Toulon,83,,,,,,,,,,,,0,1.0,Maison,64.0,3.0,425.0,5.972174,43.133215,000AV,745
2024-1010337,2024-02-02,1,Vente,360000.0,110.0,,CHE DU PELICAN,5690,83000.0,83137,Toulon,83,,,,,,,,,,,,0,1.0,Maison,49.0,3.0,885.0,5.969799,43.112008,000BK,763
2024-1010354,2024-02-23,1,Vente,450400.0,22.0,,AV DES SOURCES,6815,83100.0,83137,Toulon,83,,,,,,,,,,,,0,2.0,Appartement,58.0,3.0,488.0,5.974294,43.129979,000AX,742
2024-1010354,2024-02-23,1,Vente,450400.0,22.0,,AV DES SOURCES,6815,83100.0,83137,Toulon,83,,,,,,,,,,,,0,2.0,Appartement,41.0,2.0,488.0,5.974294,43.129979,000AX,742
2024-1010392,2024-02-21,1,Vente,310000.0,300.0,,RUE GAY LUSSAC,3215,83000.0,83137,Toulon,83,,,,,,,,,,,,0,1.0,Maison,57.0,3.0,144.0,5.952573,43.116866,000BR,744
2024-1010435,2024-02-15,1,Vente,375000.0,192.0,,AV DE VERDUN,7115,83100.0,83137,Toulon,83,,,,,,,,,,,,0,1.0,Maison,85.0,5.0,370.0,5.972784,43.133334,000AV,750
2024-1010550,2024-02-15,1,Vente,417000.0,155.0,,RUE ETIENNE DOLET,2700,83200.0,83137,Toulon,83,,,,,,,,,,,,0,1.0,Maison,86.0,4.0,191.0,5.918211,43.135398,000CZ,750
2024-1010601,2024-03-04,1,Vente,219750.0,2027.0,,AV JOSEPH GASQUET,4030,83100.0,83137,Toulon,83,,,,,,,,,,,,0,2.0,Appartement,73.0,3.0,164.0,5.97621,43.120626,000BD,732
2024-1010610,2024-02-23,1,Vente,379950.0,72.0,,RUE D ALEXANDRIE,0115,83200.0,83137,Toulon,83,,,,,,,,,,,,0,1.0,Maison,80.0,4.0,256.0,5.892604,43.129751,000DP,742
2024-1010627,2024-02-23,1,Vente,118000.0,12.0,B,RUE MASSENET,5000,83100.0,83137,Toulon,83,,,,,,,,,,,,0,1.0,Maison,46.0,3.0,150.0,5.965359,43.125406,000AX,742
2024-1010629,2024-02-09,1,Vente,345000.0,58.0,,CHE DE BLIDA,0925,83000.0,83137,Toulon,83,,,,,,,,,,,,0,1.0,Maison,72.0,3.0,298.0,5.955846,43.120424,000BP,756
2024-1010666,2024-03-07,1,Vente,400000.0,87.0,,AV DOCTEUR DOYEN,2265,83200.0,83137,Toulon,83,,,,,,,,,,,,0,2.0,Appartement,42.0,2.0,370.0,5.899228,43.128508,000DL,729
2024-1010666,2024-03-07,1,Vente,400000.0,87.0,,AV DOCTEUR DOYEN,2265,83200.0,83137,Toulon,83,,,,,,,,,,,,0,2.0,Appartement,30.0,1.0,370.0,5.899228,43.128508,000DL,729
2024-1010666,2024-03-07,1,Vente,400000.0,87.0,,AV DOCTEUR DOYEN,2265,83200.0,83137,Toulon,83,,,,,,,,,,,,0,2.0,Appartement,78.0,3.0,370.0,5.899228,43.128508,000DL,729
2024-1010666,2024-03-07,1,Vente,400000.0,87.0,,AV DOCTEUR DOYEN,2265,83200.0,83137,Toulon,83,,,,,,,,,,,,0,2.0,Appartement,82.0,3.0,370.0,5.899228,43.128508,000DL,729
2024-1010859,2024-02-24,1,Vente,100000.0,3.0,,IMP BOSANO,0979,83000.0,83137,Toulon,83,,,,,,,,,,,,0,1.0,Maison,69.0,4.0,102.0,5.943441,43.124315,000CI,741
2024-1010940,2024-03-01,1,Vente,440000.0,15.0,,RUE DOCTEUR PAUL MAROTTE,2335,83000.0,83137,Toulon,83,,,,,,,,,,,,0,1.0,Maison,92.0,5.0,350.0,5.939843,43.13197,000AO,735
2024-1010956,2024-02-27,1,Vente,477000.0,133.0,,RUE ORVES,5515,83000.0,83137,Toulon,83,,,,,,,,,,,,0,2.0,Appartement,31.0,2.0,78.0,5.939776,43.111483,000BV,738
2024-1010956,2024-02-27,1,Vente,477000.0,133.0,,RUE ORVES,5515,83000.0,83137,Toulon,83,,,,,,,,,,,,0,2.0,Appartement,21.0,2.0,78.0,5.939776,43.111483,000BV,738
2024-1010956,2024-02-27,1,Vente,477000.0,133.0,,RUE ORVES,5515,83000.0,83137,Toulon,83,,,,,,,,,,,,0,2.0,Appartement,31.0,2.0,78.0,5.939776,43.111483,000BV,738
2024-1010956,2024-02-27,1,Vente,477000.0,133.0,,RUE ORVES,5515,83000.0,83137,Toulon,83,,,,,,,,,,,,0,2.0,Appartement,21.0,2.0,78.0,5.939776,43.111483,000BV,738
2024-1010957,2024-03-07,1,Vente,339000.0,6.0,,RUE ZENON PONS,7330,83000.0,83137,Toulon,83,,,,,,,,,,,,0,1.0,Maison,50.0,3.0,428.0,5.955687,43.116941,000BP,729
2024-1010968,2024-03-13,1,Vente,286000.0,67.0,,RUE LEON ISNARD,4405,83100.0,83137,Toulon,83,,,,,,,,,,,,0,1.0,Maison,49.0,3.0,204.0,5.973512,43.120119,000BD,723
2024-1011067,2024-02-29,1,Vente,413000.0,100.0,,RUE GENERAL CHANGARNIER,3250,83000.0,83137,Toulon,83,,,,,,,,,,,,0,2.0,Appartement,29.0,2.0,230.0,5.927129,43.13345,000AN,736
2024-1011067,2024-02-29,1,Vente,413000.0,100.0,,RUE GENERAL CHANGARNIER,3250,83000.0,83137,Toulon,83,,,,,,,,,,,,0,2.0,Appartement,26.0,2.0,230.0,5.927129,43.13345,000AN,736
2024-1011067,2024-02-29,1,Vente,413000.0,100.0,,RUE GENERAL CHANGARNIER,3250,83000.0,83137,Toulon,83,,,,,,,,,,,,0,2.0,Appartement,20.0,1.0,230.0,5.927129,43.13345,000AN,736
2024-1011067,2024-02-29,1,Vente,413000.0,100.0,,RUE GENERAL CHANGARNIER,3250,83000.0,83137,Toulon,83,,,,,,,,,,,,0,2.0,Appartement,38.0,2.0,230.0,5.927129,43.13345,000AN,736
2024-1011067,2024-02-29,1,Vente,413000.0,100.0,,RUE GENERAL CHANGARNIER,3250,83000.0,83137,Toulon,83,,,,,,,,,,,,0,2.0,Appartement,58.0,3.0,230.0,5.927129,43.13345,000AN,736
2024-1011093,2024-03-13,1,Vente,300000.0,218.0,,BD FOURNIOL,2960,83200.0,83137,Toulon,83,,1.0,53.25,,,,,,,,,1,1.0,Maison,65.0,3.0,284.0,5.915699,43.139423,000DH,723
2024-1011105,2024-03-08,1,Vente,140000.0,22.0,,RUE DE POMET,5870,83000.0,83137,Toulon,83,,,,,,,,,,,,0,2.0,Appartement,39.0,2.0,50.0,5.932006,43.123305,000CN,728
2024-1011105,2024-03-08,1,Vente,140000.0,22.0,,RUE DE POMET,5870,83000.0,83137,Toulon,83,,,,,,,,,,,,0,2.0,Appartement,39.0,1.0,50.0,5.932006,43.123305,000CN,728
2024-1011105,2024-03-08,1,Vente,140000.0,22.0,,RUE DE POMET,5870,83000.0,83137,Toulon,83,,,,,,,,,,,,0,2.0,Appartement,35.0,1.0,50.0,5.932006,43.123305,000CN,728
2024-1011105,2024-03-08,1,Vente,140000.0,22.0,,RUE DE POMET,5870,83000.0,83137,Toulon,83,,,,,,,,,,,,0,2.0,Appartement,41.0,2.0,50.0,5.932006,43.123305,000CN,728
2024-1011105,2024-03-08,1,Vente,140000.0,22.0,,RUE DE POMET,5870,83000.0,83137,Toulon,83,,,,,,,,,,,,0,2.0,Appartement,35.0,1.0,50.0,5.932006,43.123305,000CN,728
2024-1011141,2024-02-22,2,Vente,378000.0,158.0,,AV CLOVIS HUGUES,1660,83200.0,83137,Toulon,83,,,,,,,,,,,,0,1.0,Maison,96.0,4.0,377.0,5.906089,43.137544,000DI,743
2024-1011220,2024-03-08,1,Vente,459500.0,893.0,,CHE DES BONNES HERBES,0963,83200.0,83137,Toulon,83,,,,,,,,,,,,0,1.0,Maison,89.0,4.0,501.0,5.886658,43.148173,000EI,728
2024-1011292,2024-03-07,1,Vente,390000.0,109.0,,AV CHIARISOLI BEY,1560,83200.0,83137,Toulon,83,,,,,,,,,,,,0,2.0,Appartement,80.0,3.0,305.0,5.896054,43.140404,000DT,729
2024-1011292,2024-03-07,1,Vente,390000.0,109.0,,AV CHIARISOLI BEY,1560,83200.0,83137,Toulon,83,,,,,,,,,,,,0,2.0,Appartement,50.0,2.0,305.0,5.896054,43.140404,000DT,729
2024-1011310,2024-03-19,1,Vente,240000.0,1.0,,RUE D ANNAM,0325,83200.0,83137,Toulon,83,,,,,,,,,,,,0,2.0,Appartement,32.0,2.0,110.0,5.913822,43.131524,000CX,717
2024-1011310,2024-03-19,1,Vente,240000.0,1.0,,RUE D ANNAM,0325,83200.0,83137,Toulon,83,,,,,,,,,,,,0,2.0,Appartement,32.0,2.0,110.0,5.913822,43.131524,000CX,717
2024-1011310,2024-03-19,1,Vente,240000.0,1.0,,RUE D ANNAM,0325,83200.0,83137,Toulon,83,,,,,,,,,,,,0,2.0,Appartement,71.0,3.0,110.0,5.913822,43.131524,000CX,717
2024-1011363,2024-03-07,1,Vente,130000.0,869.0,,RUE EDOUARD HERRIOT,2511,83200.0,83137,Toulon,83,,,,,,,,,,,,0,2.0,Appartement,64.0,3.0,250.0,5.891086,43.128233,000DM,729
2024-1011363,2024-03-07,1,Vente,130000.0,869.0,,RUE EDOUARD HERRIOT,2511,83200.0,83137,Toulon,83,,,,,,,,,,,,0,2.0,Appartement,73.0,4.0,250.0,5.891086,43.128233,000DM,729
2024-1011363,2024-03-07,1,Vente,130000.0,869.0,,RUE EDOUARD HERRIOT,2511,83200.0,83137,Toulon,83,,,,,,,,,,,,0,2.0,Appartement,58.0,3.0,250.0,5.891086,43.128233,000DM,729
2024-1011389,2024-03-26,1,Vente,442700.0,92.0,,BD DE L ISERAN,3730,83200.0,83137,Toulon,83,,,,,,,,,,,,0,2.0,Appartement,28.0,2.0,281.0,5.932266,43.136427,000AM,710
2024-1011389,2024-03-26,1,Vente,442700.0,92.0,,BD DE L ISERAN,3730,83200.0,83137,Toulon,83,,,,,,,,,,,,0,2.0,Appartement,25.0,2.0,281.0,5.932266,43.136427,000AM,710
2024-1011389,2024-03-26,1,Vente,442700.0,92.0,,BD DE L ISERAN,3730,83200.0,83137,Toulon,83,,,,,,,,,,,,0,2.0,Appartement,49.0,3.0,281.0,5.932266,43.136427,000AM,710
2024-1011389,2024-03-26,1,Vente,442700.0,92.0,,BD DE L ISERAN,3730,83200.0,83137,Toulon,83,,,,,,,,,,,,0,2.0,Appartement,32.0,2.0,281.0,5.932266,43.136427,000AM,710
2024-1011503,2024-03-08,1,Vente,270000.0,336.0,,AV DE LA RESISTANCE,6180,83000.0,83137,Toulon,83,,,,,,,,,,,,0,1.0,Maison,118.0,4.0,232.0,5.948135,43.116041,000BR,728
2024-1011516,2024-03-08,1,Vente,420259.0,493.0,,CHE DE TERRE ROUGE,6906,83200.0,83137,Toulon,83,,2.0,111.62,,,,,,,,,1,1.0,Maison,114.0,5.0,501.0,5.978335,43.140234,000AD,728
2024-1011522,2024-03-21,1,Vente,365000.0,252.0,,RUE LACORDAIRE,4220,83200.0,83137,Toulon,83,,,,,,,,,,,,0,2.0,Appartement,40.0,2.0,494.0,5.914531,43.131616,000CX,715
2024-1011522,2024-03-21,1,Vente,365000.0,252.0,,RUE LACORDAIRE,4220,83200.0,83137,Toulon,83,,,,,,,,,,,,0,2.0,Appartement,28.0,1.0,494.0,5.914531,43.131616,000CX,715
2024-1011522,2024-03-21,1,Vente,365000.0,252.0,,RUE LACORDAIRE,4220,83200.0,83137,Toulon,83,,,,,,,,,,,,0,2.0,Appartement,28.0,1.0,494.0,5.914531,43.131616,000CX,715
2024-1011522,2024-03-21,1,Vente,365000.0,252.0,,RUE LACORDAIRE,4220,83200.0,83137,Toulon,83,,,,,,,,,,,,0,2.0,Appartement,40.0,2.0,494.0,5.914531,43.131616,000CX,715
2024-1011522,2024-03-21,1,Vente,365000.0,252.0,,RUE LACORDAIRE,4220,83200.0,83137,Toulon,83,,,,,,,,,,,,0,2.0,Appartement,100.0,4.0,494.0,5.914531,43.131616,000CX,715
2024-1011527,2024-03-07,1,Vente,140000.0,17.0,,AV MARCEAU,4790,83100.0,83137,Toulon,83,,,,,,,,,,,,0,1.0,Maison,102.0,4.0,455.0,5.949393,43.126542,000AR,729
2024-1011534,2024-03-21,1,Vente,200000.0,82.0,A,BD SAINT JACQUES,6490,83200.0,83137,Toulon,83,,,,,,,,,,,,0,1.0,Maison,70.0,2.0,150.0,5.902816,43.132734,000DL,715
2024-1011560,2024-03-25,1,Vente,394720.0,553.0,,BD DELESCLUZE,2135,83200.0,83137,Toulon,83,,,,,,,,,,,,0,1.0,Maison,86.0,4.0,171.0,5.89947,43.137716,000DS,711
2024-1011717,2024-03-29,1,Vente,350000.0,103.0,,RUE PIERRE DEVOLUY,5765,83000.0,83137,Toulon,83,,,,,,,,,,,,0,1.0,Maison,56.0,2.0,336.0,5.967454,43.120194,000BH,707
2024-1011725,2024-03-13,1,Vente,474876.0,139.0,B,CHE DU PELVOUX,5700,83200.0,83137,Toulon,83,,,,,,,,,,,,0,1.0,Maison,78.0,3.0,608.0,5.909173,43.152184,000DY,723
2024-1011777,2024-04-02,1,Vente,367250.0,47.0,,IMP DES COTEAUX FLEURIS,1920,83000.0,83137,Toulon,83,,,,,,,,,,,,0,1.0,Maison,56.0,4.0,190.0,5.933387,43.137053,000AM,703
2024-1011796,2024-04-10,1,Vente,215000.0,185.0,,RUE CHANOINE BOUISSON,1396,83200.0,83137,Toulon,83,,,,,,,,,,,,0,1.0,Maison,52.0,3.0,204.0,5.902089,43.136427,000DI,695
2024-1011864,2024-04-12,1,Vente,237700.0,454.0,,AV COLONEL PICOT,1755,83100.0,83137,Toulon,83,,,,,,,,,,,,0,1.0,Maison,90.0,5.0,228.0,5.962077,43.126918,000BE,693
2024-1011871,2024-03-21,1,Vente,345000.0,24.0,,RUE ELISEE RECLUS,2550,83200.0,83137,Toulon,83,,,,,,,,,,,,0,2.0,Appartement,35.0,1.0,120.0,5.909591,43.131773,000CX,715
2024-1011871,2024-03-21,1,Vente,345000.0,24.0,,RUE ELISEE RECLUS,2550,83200.0,83137,Toulon,83,,,,,,,,,,,,0,2.0,Appartement,30.0,1.0,120.0,5.909591,43.131773,000CX,715
2024-1011871,2024-03-21,1,Vente,345000.0,24.0,,RUE ELISEE RECLUS,2550,83200.0,83137,Toulon,83,,,,,,,,,,,,0,2.0,Appartement,35.0,1.0,120.0,5.909591,43.131773,000CX,715
2024-1011871,2024-03-21,1,Vente,345000.0,24.0,,RUE ELISEE RECLUS,2550,83200.0,83137,Toulon,83,,,,,,,,,,,,0,2.0,Appartement,30.0,1.0,120.0,5.909591,43.131773,000CX,715
2024-1011871,2024-03-21,1,Vente,345000.0,24.0,,RUE ELISEE RECLUS,2550,83200.0,83137,Toulon,83,,,,,,,,,,,,0,2.0,Appartement,40.0,2.0,120.0,5.909591,43.131773,000CX,715
2024-1011997,2024-04-08,1,Vente,400000.0,20.0,,RUE CHARLES PONCY,1475,83000.0,83137,Toulon,83,,,,,,,,,,,,0,2.0,Appartement,32.0,2.0,96.0,5.932359,43.123212,000CN,697
2024-1011997,2024-04-08,1,Vente,400000.0,20.0,,RUE CHARLES PONCY,1475,83000.0,83137,Toulon,83,,,,,,,,,,,,0,2.0,Appartement,12.0,1.0,96.0,5.932359,43.123212,000CN,697
2024-1011997,2024-04-08,1,Vente,400000.0,20.0,,RUE CHARLES PONCY,1475,83000.0,83137,Toulon,83,,,,,,,,,,,,0,2.0,Appartement,32.0,2.0,96.0,5.932359,43.123212,000CN,697
2024-1011997,2024-04-08,1,Vente,400000.0,20.0,,RUE CHARLES PONCY,1475,83000.0,83137,Toulon,83,,,,,,,,,,,,0,2.0,Appartement,32.0,2.0,96.0,5.932359,43.123212,000CN,697
2024-1011997,2024-04-08,1,Vente,400000.0,20.0,,RUE CHARLES PONCY,1475,83000.0,83137,Toulon,83,,,,,,,,,,,,0,2.0,Appartement,32.0,2.0,96.0,5.932359,43.123212,000CN,697
2024-1011997,2024-04-08,1,Vente,400000.0,20.0,,RUE CHARLES PONCY,1475,83000.0,83137,Toulon,83,,,,,,,,,,,,0,2.0,Appartement,32.0,2.0,96.0,5.932359,43.123212,000CN,697
2024-1011997,2024-04-08,1,Vente,400000.0,20.0,,RUE CHARLES PONCY,1475,83000.0,83137,Toulon,83,,,,,,,,,,,,0,2.0,Appartement,32.0,2.0,96.0,5.932359,43.123212,000CN,697
2024-1011997,2024-04-08,1,Vente,400000.0,20.0,,RUE CHARLES PONCY,1475,83000.0,83137,Toulon,83,,,,,,,,,,,,0,2.0,Appartement,32.0,2.0,96.0,5.932359,43.123212,000CN,697
2024-1011997,2024-04-08,1,Vente,400000.0,20.0,,RUE CHARLES PONCY,1475,83000.0,83137,Toulon,83,,,,,,,,,,,,0,2.0,Appartement,32.0,2.0,96.0,5.932359,43.123212,000CN,697
2024-1012002,2024-03-27,1,Vente,315000.0,9050.0,,CD 46,2167,83200.0,83137,Toulon,83,,2.0,98.7,,,,,,,,,1,1.0,Maison,99.0,4.0,1228.0,5.944904,43.163564,000ET,709
2024-1012008,2024-03-29,1,Vente,252000.0,102.0,,BD CLAMOUR,1580,83000.0,83137,Toulon,83,,,,,,,,,,,,0,1.0,Maison,43.0,3.0,350.0,5.961436,43.117144,000BH,707
2024-1012009,2024-03-26,1,Vente,340000.0,37.0,B,RUE GABRIEL,3115,83000.0,83137,Toulon,83,,,,,,,,,,,,0,1.0,Maison,50.0,4.0,158.0,5.941667,43.130821,000AO,710
2024-1012020,2024-04-02,1,Vente,475510.0,2156.0,,CHE DE L HUBAC,7027,83200.0,83137,Toulon,83,,,,,,,,,,,,0,1.0,Maison,100.0,3.0,500.0,5.940299,43.158012,000EV,703
2024-1012020,2024-04-02,1,Vente,475510.0,2156.0,,CHE DE L HUBAC,7027,83200.0,83137,Toulon,83,,,,,,,,,,,,0,1.0,Maison,100.0,3.0,1296.0,5.940299,43.158012,000EV,703
2024-1012038,2024-03-20,1,Vente,233000.0,3838.0,,COR MARIUS ESCARTEFIGUE,4905,83200.0,83137,Toulon,83,,,,,,,,,,,,0,1.0,Maison,45.0,2.0,422.0,5.970209,43.134836,000AH,716
2024-1012074,2024-04-04,1,Vente,307000.0,16.0,,AV GAI COTEAU,3133,83200.0,83137,Toulon,83,,16.0,85.24,,,,,,,,,1,1.0,Maison,76.0,5.0,500.0,5.889867,43.136693,000DR,701
2024-1012163,2024-04-05,1,Vente,360500.0,260.0,,RUE DU DAHOMEY,2030,83200.0,83137,Toulon,83,,,,,,,,,,,,0,1.0,Maison,115.0,5.0,565.0,5.887441,43.129491,000DP,700
2024-1012167,2024-04-05,1,Vente,367000.0,41.0,,RUE CLAIRE JOIE,1575,83200.0,83137,Toulon,83,,,,,,,,,,,,0,1.0,Maison,79.0,5.0,545.0,5.900938,43.152656,000EM,700
2024-1012198,2024-04-18,1,Vente,300000.0,166.0,,AV DES OLIVIERS,5450,83100.0,83137,Toulon,83,,,,,,,,,,,,0,1.0,Maison,66.0,4.0,370.0,5.976303,43.129944,000AW,687
2024-1012219,2024-04-08,1,Vente,450000.0,610.0,C,CHE DES FOURS A CHAUX,2965,83200.0,83137,Toulon,83,,,,,,,,,,,,0,1.0,Maison,103.0,4.0,740.0,5.906879,43.14967,000DW,697
2024-1012225,2024-04-15,1,Vente,320300.0,3.0,T,IMP EYRAUD,2755,83000.0,83137,Toulon,83,,,,,,,,,,,,0,1.0,Maison,84.0,3.0,530.0,5.946266,43.126131,000AR,690
2024-1012293,2024-04-10,1,Vente,150000.0,18.0,,RUE D ABIDJAN,0025,83200.0,83137,Toulon,83,,,,,,,,,,,,0,2.0,Appartement,19.0,1.0,325.0,5.895957,43.130101,000DP,695
2024-1012293,2024-04-10,1,Vente,150000.0,18.0,,RUE D ABIDJAN,0025,83200.0,83137,Toulon,83,,,,,,,,,,,,0,2.0,Appartement,62.0,3.0,325.0,5.895957,43.130101,000DP,695
2024-1012293,2024-04-10,1,Vente,150000.0,18.0,,RUE D ABIDJAN,0025,83200.0,83137,Toulon,83,,,,,,,,,,,,0,2.0,Appartement,19.0,1.0,325.0,5.895957,43.130101,000DP,695
2024-1012313,2024-04-16,1,Vente,450000.0,322.0,C,CHE RENE GRAILLES,6150,83200.0,83137,Toulon,83,,,,,,,,,,,,0,1.0,Maison,90.0,5.0,1625.0,5.888074,43.12524,000DM,689
2024-1012327,2024-04-19,1,Vente,484550.0,209.0,,CHE DE L ORATOIRE,5470,83200.0,83137,Toulon,83,,,,,,,,,,,,0,1.0,Maison,100.0,4.0,393.0,5.89971,43.142725,000DT,686
2024-1012597,2024-04-26,1,Vente,453275.0,740.0,A,CHE DU COLLET DE SAINT PIERRE,1685,83200.0,83137,Toulon,83,,,,,,,,,,,,0,1.0,Maison,67.0,2.0,1530.0,5.909971,43.16058,000EP,679
2024-1012686,2024-04-26,1,Vente,269000.0,319.0,,AV COLONEL PICOT,1755,83100.0,83137,Toulon,83,,,,,,,,,,,,0,1.0,Maison,57.0,3.0,287.0,5.976689,43.134635,000AV,679
2024-1012737,2024-04-25,1,Vente,364990.0,90.0,D,CHE BARTHELEMY FLORENT,0618,83200.0,83137,Toulon,83,,,,,,,,,,,,0,1.0,Maison,96.0,5.0,1015.0,5.914728,43.148146,000EW,680
2024-1012741,2024-04-26,1,Vente,265000.0,22.0,B,RUE ANTOINE BONNET,0340,83000.0,83137,Toulon,83,,,,,,,,,,,,0,2.0,Appartement,78.0,3.0,173.0,5.922553,43.130769,000CY,679
2024-1012741,2024-04-26,1,Vente,265000.0,22.0,B,RUE ANTOINE BONNET,0340,83000.0,83137,Toulon,83,,,,,,,,,,,,0,2.0,Appartement,57.0,3.0,173.0,5.922553,43.130769,000CY,679
2024-1012821,2024-04-25,1,Vente,430000.0,105.0,,IMP ALLONGUE,0145,83200.0,83137,Toulon,83,,,,,,,,,,,,0,1.0,Maison,120.0,4.0,273.0,5.92103,43.133738,000CZ,680
2024-1013047,2024-05-02,1,Vente,310000.0,221.0,,BD DELESCLUZE,2135,83200.0,83137,Toulon,83,,,,,,,,,,,,0,1.0,Maison,82.0,4.0,359.0,5.903366,43.13737,000DI,673
2024-1013054,2024-05-17,1,Vente,190000.0,318.0,,AV FRANCOIS NARDI,3025,83000.0,83137,Toulon,83,,,,,,,,,,,,0,1.0,Maison,110.0,5.0,270.0,5.953738,43.118232,000BR,658
2024-1013117,2024-04-30,1,Vente,350000.0,7.0,,RUE POURQUOI PAS,5920,83000.0,83137,Toulon,83,,,,,,,,,,,,0,1.0,Maison,48.0,3.0,280.0,5.950966,43.110736,000BS,675
2024-1013163,2024-04-29,1,Vente,302800.0,765.0,B,AV ANDRE LE CHATELIER,0305,83200.0,83137,Toulon,83,,,,,,,,,,,,0,1.0,Maison,65.0,3.0,289.0,5.896402,43.139331,000DT,676
2024-1013179,2024-05-06,1,Vente,418280.0,1290.0,,COR EMILE FABRE,X019,83200.0,83137,Toulon,83,,,,,,,,,,,,0,1.0,Maison,98.0,4.0,225.0,5.92077,43.14302,000EW,669
2024-1013258,2024-05-03,1,Vente,353500.0,35.0,,CHE SAUVAN,6682,83200.0,83137,Toulon,83,,,,,,,,,,,,0,1.0,Maison,66.0,4.0,704.0,5.886564,43.126878,000DM,672
2024-1013321,2024-05-17,1,Vente,255000.0,553.0,,AV LOUIS BOZZO,4600,83000.0,83137,Toulon,83,,,,,,,,,,,,0,2.0,Appartement,29.0,2.0,1034.0,5.945277,43.132129,000AK,658
2024-1013321,2024-05-17,1,Vente,255000.0,553.0,,AV LOUIS BOZZO,4600,83000.0,83137,Toulon,83,,,,,,,,,,,,0,2.0,Appartement,94.0,5.0,1034.0,5.945277,43.132129,000AK,658
2024-1013321,2024-05-17,1,Vente,255000.0,553.0,,AV LOUIS BOZZO,4600,83000.0,83137,Toulon,83,,,,,,,,,,,,0,2.0,Appartement,63.0,3.0,1034.0,5.945277,43.132129,000AK,658
2024-1013360,2024-05-16,1,Vente,275701.0,9006.0,,AV MEDICIS,5065,83000.0,83137,Toulon,83,,,,,,,,,,,,0,1.0,Maison,54.0,3.0,280.0,5.948445,43.115501,000BR,659
2024-1013450,2024-05-03,1,Vente,252000.0,9003.0,,IMP JOSEPH ETIENNE,4015,83000.0,83137,Toulon,83,,,,,,,,,,,,0,1.0,Maison,72.0,3.0,845.0,5.945385,43.12711,000AR,672
2024-1013469,2024-05-16,1,Vente,285000.0,201.0,,BD MARECHAL JOFFRE,4830,83100.0,83137,Toulon,83,,,,,,,,,,,,0,2.0,Appartement,41.0,2.0,101.0,5.950606,43.123862,000CH,659
2024-1013469,2024-05-16,1,Vente,285000.0,201.0,,BD MARECHAL JOFFRE,4830,83100.0,83137,Toulon,83,,,,,,,,,,,,0,2.0,Appartement,41.0,2.0,101.0,5.950606,43.123862,000CH,659
2024-1013469,2024-05-16,1,Vente,285000.0,201.0,,BD MARECHAL JOFFRE,4830,83100.0,83137,Toulon,83,,,,,,,,,,,,0,2.0,Appartement,41.0,2.0,101.0,5.950606,43.123862,000CH,659
2024-1013579,2024-05-24,1,Vente,311600.0,86.0,,IMP MERCIER,5092,83100.0,83137,Toulon,83,,,,,,,,,,,,0,1.0,Maison,63.0,3.0,252.0,5.969241,43.124221,000AX,651
2024-1013601,2024-05-02,1,Vente,290000.0,168.0,,RUE ROSA BONHEUR,6335,83000.0,83137,Toulon,83,,,,,,,,,,,,0,1.0,Maison,60.0,3.0,375.0,5.944211,43.126634,000AR,673
2024-1013662,2024-05-21,1,Vente,361400.0,10.0,,AV LOUIS MICHEL VAN LOO,4657,83100.0,83137,Toulon,83,,,,,,,,,,,,0,1.0,Maison,80.0,4.0,508.0,5.955146,43.12917,000AS,654
2024-1013677,2024-05-29,1,Vente,354000.0,4.0,,IMP DES MURIERS,5365,83100.0,83137,Toulon,83,,,,,,,,,,,,0,1.0,Maison,100.0,4.0,294.0,5.949133,43.124336,000CH,646
2024-1013687,2024-05-07,1,Vente,325000.0,28.0,,RUE DE LA MARTINIQUE,4975,83200.0,83137,Toulon,83,,,,,,,,,,,,0,1.0,Maison,53.0,3.0,352.0,5.901989,43.135373,000DI,668
2024-1013764,2024-05-28,1,Vente,313300.0,6.0,,RUE ROLLAND GARROS,6300,83100.0,83137,Toulon,83,,,,,,,,,,,,0,1.0,Maison,58.0,3.0,305.0,5.967631,43.127489,000AX,647
2024-1013793,2024-05-31,1,Vente,220000.0,599.0,,CHE BARTHELEMY FLORENT,0618,83200.0,83137,Toulon,83,,,,,,,,,,,,0,2.0,Appartement,30.0,1.0,500.0,5.916566,43.152239,000DX,644
2024-1013793,2024-05-31,1,Vente,220000.0,599.0,,CHE BARTHELEMY FLORENT,0618,83200.0,83137,Toulon,83,,,,,,,,,,,,0,2.0,Appartement,89.0,1.0,500.0,5.916566,43.152239,000DX,644
2024-1013793,2024-05-31,1,Vente,220000.0,599.0,,CHE BARTHELEMY FLORENT,0618,83200.0,83137,Toulon,83,,,,,,,,,,,,0,2.0,Appartement,49.0,3.0,500.0,5.916566,43.152239,000DX,644
2024-1013793,2024-05-31,1,Vente,220000.0,599.0,,CHE BARTHELEMY FLORENT,0618,83200.0,83137,Toulon,83,,,,,,,,,,,,0,2.0,Appartement,49.0,3.0,1069.0,5.916566,43.152239,000DX,644
2024-1013793,2024-05-31,1,Vente,220000.0,599.0,,CHE BARTHELEMY FLORENT,0618,83200.0,83137,Toulon,83,,,,,,,,,,,,0,2.0,Appartement,89.0,1.0,1069.0,5.916566,43.152239,000DX,644
2024-1013793,2024-05-31,1,Vente,220000.0,599.0,,CHE BARTHELEMY FLORENT,0618,83200.0,83137,Toulon,83,,,,,,,,,,,,0,2.0,Appartement,30.0,1.0,1069.0,5.916566,43.152239,000DX,644
2024-1013858,2024-05-30,1,Vente,335550.0,18.0,,TRA DES CYPRES,2014,83100.0,83137,Toulon,83,,,,,,,,,,,,0,1.0,Maison,69.0,4.0,282.0,5.97387,43.133041,000AV,645
2024-1013869,2024-05-15,1,Vente,453000.0,63.0,,RUE GUEIT,3480,83000.0,83137,Toulon,83,,,,,,,,,,,,0,1.0,Maison,105.0,5.0,726.0,5.948022,43.115525,000BR,660
2024-1013891,2024-05-15,1,Vente,300000.0,60.0,,RUE DE LA MARNE,4930,83200.0,83137,Toulon,83,,,,,,,,,,,,0,1.0,Maison,90.0,4.0,252.0,5.910402,43.130662,000CX,660
2024-1013943,2024-05-17,1,Vente,490000.0,5000.0,,IMP DES JARDINS,3796,83100.0,83137,Toulon,83,,,,,,,,,,,,0,1.0,Maison,115.0,4.0,665.0,5.977318,43.117964,000BC,658
2024-1013955,2024-06-03,1,Vente,341250.0,50.0,,BD EMILE JACQUEMIN,2587,83200.0,83137,Toulon,83,,,,,,,,,,,,0,1.0,Maison,65.0,4.0,270.0,5.916981,43.141321,000DE,641
2024-1013971,2024-06-03,1,Vente,290000.0,323.0,,AV FORBIN,2893,83100.0,83137,Toulon,83,,,,,,,,,,,,0,1.0,Maison,63.0,3.0,378.0,5.968045,43.124157,000AX,641
2024-1013989,2024-05-31,1,Vente,275000.0,216.0,,AV COLONEL PICOT,1755,83100.0,83137,Toulon,83,,,,,,,,,,,,0,2.0,Appartement,34.0,2.0,204.0,5.959544,43.125937,000BE,644
2024-1013989,2024-05-31,1,Vente,275000.0,216.0,,AV COLONEL PICOT,1755,83100.0,83137,Toulon,83,,,,,,,,,,,,0,2.0,Appartement,34.0,2.0,204.0,5.959544,43.125937,000BE,644
2024-1013989,2024-05-31,1,Vente,275000.0,216.0,,AV COLONEL PICOT,1755,83100.0,83137,Toulon,83,,,,,,,,,,,,0,2.0,Appartement,46.0,3.0,204.0,5.959544,43.125937,000BE,644
2024-1013989,2024-05-31,1,Vente,275000.0,216.0,,AV COLONEL PICOT,1755,83100.0,83137,Toulon,83,,,,,,,,,,,,0,2.0,Appartement,22.0,1.0,204.0,5.959544,43.125937,000BE,644
2024-1013997,2024-06-06,1,Vente,398500.0,5.0,,PL CANAILLETTE,1175,83100.0,83137,Toulon,83,,,,,,,,,,,,0,1.0,Maison,110.0,4.0,305.0,5.977387,43.136585,000AV,638
2024-1014016,2024-06-14,1,Vente,253000.0,9.0,,RUE DU MURIER,5360,83000.0,83137,Toulon,83,,,,,,,,,,,,0,2.0,Appartement,35.0,3.0,54.0,5.935382,43.120921,000CM,630
2024-1014016,2024-06-14,1,Vente,253000.0,9.0,,RUE DU MURIER,5360,83000.0,83137,Toulon,83,,,,,,,,,,,,0,2.0,Appartement,35.0,3.0,54.0,5.935382,43.120921,000CM,630
2024-1014016,2024-06-14,1,Vente,253000.0,9.0,,RUE DU MURIER,5360,83000.0,83137,Toulon,83,,,,,,,,,,,,0,2.0,Appartement,35.0,3.0,54.0,5.935382,43.120921,000CM,630
2024-1014104,2024-06-07,1,Vente,341350.0,145.0,,AV JOSEPH GASQUET,4030,83100.0,83137,Toulon,83,,,,,,,,,,,,0,1.0,Maison,110.0,4.0,337.0,5.975741,43.121457,000BD,637
2024-1014267,2024-06-08,1,Vente,384000.0,155.0,,RUE GUYNEMER,3530,83100.0,83137,Toulon,83,,,,,,,,,,,,0,1.0,Maison,72.0,4.0,378.0,5.96795,43.127167,000AX,636
2024-1014397,2024-05-30,1,Vente,375300.0,56.0,,RUE HECTOR BERLIOZ,3545,83200.0,83137,Toulon,83,,,,,,,,,,,,0,1.0,Maison,63.0,4.0,455.0,5.903612,43.142789,000DV,645
2024-1014440,2024-06-20,1,Vente,305000.0,9010.0,,RUE VALENTIN HAUY,7055,83200.0,83137,Toulon,83,,,,,,,,,,,,0,1.0,Maison,81.0,4.0,448.0,5.900782,43.138113,000DS,624
2024-1014655,2024-06-28,1,Vente,307550.0,7.0,,IMP DE PONDICHERY,5885,83200.0,83137,Toulon,83,,,,,,,,,,,,0,1.0,Maison,55.0,3.0,300.0,5.915042,43.139488,000DH,616
2024-1014663,2024-06-18,1,Vente,443570.0,737.0,A,CHE DE FORGENTIER,2900,83200.0,83137,Toulon,83,,,,,,,,,,,,0,1.0,Maison,81.0,4.0,860.0,5.897712,43.136299,000DS,626
2024-1014674,2024-06-18,1,Vente,428100.0,160.0,,CHE MEYLAN,5121,83200.0,83137,Toulon,83,,,,,,,,,,,,0,1.0,Maison,74.0,3.0,575.0,5.899534,43.155863,000EM,626
2024-1014701,2024-06-24,1,Vente,279360.0,150.0,,AV DE LA MITRE,5205,83000.0,83137,Toulon,83,,,,,,,,,,,,0,1.0,Maison,62.0,2.0,89.0,5.933381,43.106097,000BW,620
2024-1014708,2024-06-12,1,Vente,300000.0,1.0,,RUE DES TOMBADES,6955,83000.0,83137,Toulon,83,,,,,,,,,,,,0,2.0,Appartement,48.0,2.0,49.0,5.933062,43.122133,000CL,632
2024-1014708,2024-06-12,1,Vente,300000.0,1.0,,RUE DES TOMBADES,6955,83000.0,83137,Toulon,83,,,,,,,,,,,,0,2.0,Appartement,28.0,1.0,49.0,5.933062,43.122133,000CL,632
2024-1014708,2024-06-12,1,Vente,300000.0,1.0,,RUE DES TOMBADES,6955,83000.0,83137,Toulon,83,,,,,,,,,,,,0,2.0,Appartement,48.0,2.0,49.0,5.933062,43.122133,000CL,632
2024-1014708,2024-06-12,1,Vente,300000.0,1.0,,RUE DES TOMBADES,6955,83000.0,83137,Toulon,83,,,,,,,,,,,,0,2.0,Appartement,37.0,1.0,49.0,5.933062,43.122133,000CL,632
2024-1014708,2024-06-12,1,Vente,300000.0,1.0,,RUE DES TOMBADES,6955,83000.0,83137,Toulon,83,,,,,,,,,,,,0,2.0,Appartement,37.0,1.0,49.0,5.933062,43.122133,000CL,632
2024-1014708,2024-06-12,1,Vente,300000.0,1.0,,RUE DES TOMBADES,6955,83000.0,83137,Toulon,83,,,,,,,,,,,,0,2.0,Appartement,37.0,1.0,49.0,5.933062,43.122133,000CL,632
2024-1014718,2024-06-26,1,Vente,272800.0,50.0,,BD SAINT JACQUES,6490,83200.0,83137,Toulon,83,,,,,,,,,,,,0,1.0,Maison,40.0,3.0,92.0,5.903254,43.132626,000DL,618
2024-1014734,2024-06-26,1,Vente,459500.0,42.0,,AV ALSACE LORRAINE,0165,83100.0,83137,Toulon,83,,,,,,,,,,,,0,1.0,Maison,78.0,6.0,529.0,5.976391,43.131621,000AW,618
2024-1014768,2024-06-20,1,Vente,420000.0,4.0,,LOT LA VALBOURDINE,A355,83200.0,83137,Toulon,83,,,,,,,,,,,,0,1.0,Maison,104.0,4.0,606.0,5.919589,43.140359,000DE,624
2024-1014800,2024-06-21,1,Vente,189000.0,11.0,B,RUE DE LA BERGERIE,0815,83000.0,83137,Toulon,83,,,,,,,,,,,,0,1.0,Maison,50.0,3.0,200.0,5.939678,43.134318,000AO,623
2024-1014826,2024-07-02,1,Vente,305450.0,24.0,,AV AUGUSTE AIGUIER,0495,83200.0,83137,Toulon,83,,,,,,,,,,,,0,1.0,Maison,79.0,4.0,148.0,5.904848,43.135752,000DK,612
2024-1014838,2024-07-01,1,Vente,430000.0,39.0,A,RUE NOTOS,5408,83100.0,83137,Toulon,83,,,,,,,,,,,,0,1.0,Maison,93.0,5.0,504.0,5.978349,43.116206,000BC,613
2024-1014900,2024-06-05,1,Vente,142002.0,84.0,,CHE DU BOSQUET DE L ORATOIRE,0997,83200.0,83137,Toulon,83,,,,,,,,,,,,0,1.0,Maison,80.0,4.0,594.0,5.89709,43.146803,000EH,639
2024-1014947,2024-06-17,1,Vente,345000.0,115.0,,CHE DE LA GUERINIERE,3485,83100.0,83137,Toulon,83,,,,,,,,,,,,0,1.0,Maison,64.0,3.0,384.0,5.956619,43.130282,000AI,627
2024-1014949,2024-06-27,1,Vente,345000.0,686.0,,RUE GROIGNARD,3464,83200.0,83137,Toulon,83,,,,,,,,,,,,0,1.0,Maison,77.0,4.0,180.0,5.90196,43.145841,000DV,617
2024-1014961,2024-06-14,1,Vente,343620.0,8.0,,RUE GILBERT KERSAHO,3370,83200.0,83137,Toulon,83,,,,,,,,,,,,0,1.0,Maison,74.0,4.0,274.0,5.895271,43.13821,000DS,630
2024-1014986,2024-06-17,1,Vente,350000.0,100.0,,RUE BOSSUET,1005,83200.0,83137,Toulon,83,,,,,,,,,,,,0,2.0,Appartement,28.0,1.0,306.0,5.915036,43.1306,000CY,627
2024-1014986,2024-06-17,1,Vente,350000.0,100.0,,RUE BOSSUET,1005,83200.0,83137,Toulon,83,,,,,,,,,,,,0,2.0,Appartement,66.0,3.0,306.0,5.915036,43.1306,000CY,627
2024-1014986,2024-06-17,1,Vente,350000.0,100.0,,RUE BOSSUET,1005,83200.0,83137,Toulon,83,,,,,,,,,,,,0,2.0,Appartement,30.0,1.0,306.0,5.915036,43.1306,000CY,627
2024-1014986,2024-06-17,1,Vente,350000.0,100.0,,RUE BOSSUET,1005,83200.0,83137,Toulon,83,,,,,,,,,,,,0,2.0,Appartement,30.0,1.0,306.0,5.915036,43.1306,000CY,627
2024-1015004,2024-06-27,1,Vente,293000.0,983.0,,CHE MON PARADIS,5280,83200.0,83137,Toulon,83,,,,,,,,,,,,0,1.0,Maison,67.0,3.0,300.0,5.892657,43.137494,000DR,617
2024-1015038,2024-06-27,1,Vente,275000.0,15.0,,BD ALPHAND,0155,83200.0,83137,Toulon,83,,,,,,,,,,,,0,2.0,Appartement,72.0,3.0,605.0,5.902703,43.131882,000DL,617
2024-1015038,2024-06-27,1,Vente,275000.0,15.0,,BD ALPHAND,0155,83200.0,83137,Toulon,83,,,,,,,,,,,,0,2.0,Appartement,34.0,1.0,605.0,5.902703,43.131882,000DL,617
2024-1015038,2024-06-27,1,Vente,275000.0,15.0,,BD ALPHAND,0155,83200.0,83137,Toulon,83,,,,,,,,,,,,0,2.0,Appartement,38.0,2.0,605.0,5.902703,43.131882,000DL,617
2024-1015137,2024-07-01,1,Vente,385000.0,10.0,,AV COMMANDANT GUILBAUD,1780,83000.0,83137,Toulon,83,,,,,,,,,,,,0,1.0,Maison,77.0,4.0,306.0,5.948433,43.112399,000BT,613
2024-1015188,2024-06-28,1,Vente,300000.0,76.0,,RUE MARIUS ANDRIEU,4895,83200.0,83137,Toulon,83,,,,,,,,,,,,0,1.0,Maison,68.0,4.0,425.0,5.9041,43.125951,000CW,616
2024-1015211,2024-06-24,1,Vente,359379.0,140.0,,BD FISQUET,2865,83200.0,83137,Toulon,83,,,,,,,,,,,,0,1.0,Maison,79.0,3.0,262.0,5.915187,43.133896,000CZ,620
2024-1015212,2024-06-14,1,Vente,380000.0,96.0,,IMP DU VAL DES ROSIERS,7038,83200.0,83137,Toulon,83,,,,,,,,,,,,0,1.0,Maison,58.0,3.0,625.0,5.925493,43.136941,000AM,630
2024-1015277,2024-07-02,1,Vente,298000.0,6.0,,AV FRANDORE,3035,83200.0,83137,Toulon,83,,,,,,,,,,,,0,1.0,Maison,86.0,3.0,390.0,5.89527,43.128794,000DM,612
2024-1015372,2024-07-02,1,Vente,280000.0,259.0,,RUE REINE JEANNE,6160,83000.0,83137,Toulon,83,,,,,,,,,,,,0,2.0,Appartement,68.0,4.0,230.0,5.927668,43.132672,000AN,612
2024-1015372,2024-07-02,1,Vente,280000.0,259.0,,RUE REINE JEANNE,6160,83000.0,83137,Toulon,83,,,,,,,,,,,,0,2.0,Appartement,73.0,4.0,230.0,5.927668,43.132672,000AN,612
2024-1015385,2024-06-27,1,Vente,480000.0,505.0,,CHE DU COLLET DE SAINT PIERRE,1685,83200.0,83137,Toulon,83,,,,,,,,,,,,0,1.0,Maison,90.0,3.0,1524.0,5.912704,43.161146,000EP,617
2024-1015457,2024-07-16,1,Vente,290000.0,38.0,,RUE DU CAPITAINE MASSON,1200,83200.0,83137,Toulon,83,,,,,,,,,,,,0,1.0,Maison,77.0,13.0,550.0,5.895316,43.129594,000DP,598
2024-1015491,2024-06-27,1,Vente,428440.0,167.0,,AV DE L ELISA,2545,83100.0,83137,Toulon,83,,,,,,,,,,,,0,1.0,Maison,108.0,5.0,388.0,5.967807,43.130744,000AT,617
2024-1015523,2024-07-08,1,Vente,310000.0,76.0,,RUE DE NARVIK,5370,83200.0,83137,Toulon,83,,,,,,,,,,,,0,1.0,Maison,77.0,5.0,300.0,5.892191,43.138225,000DR,606
2024-1015533,2024-07-11,1,Vente,400000.0,526.0,,CHE DE LA CARRAIRE,1215,83200.0,83137,Toulon,83,,,,,,,,,,,,0,1.0,Maison,120.0,4.0,1545.0,5.933241,43.161368,000ES,603
2024-1015573,2024-07-09,1,Vente,466000.0,303.0,,RUE JULES CESAR,4075,83200.0,83137,Toulon,83,,,,,,,,,,,,0,1.0,Maison,79.0,4.0,515.0,5.890489,43.14051,000DR,605
2024-1015623,2024-06-26,1,Vente,470000.0,408.0,,CHE DE GRATTE SEMELLE,3455,83000.0,83137,Toulon,83,,,,,,,,,,,,0,1.0,Maison,80.0,3.0,1000.0,5.95833,43.118507,000BP,618
2024-1015634,2024-06-27,1,Vente,378000.0,1502.0,B,CHEM VX CHEMIN DE STE MUSSE,6620,83100.0,83137,Toulon,83,,,,,,,,,,,,0,1.0,Maison,99.0,4.0,642.0,5.982503,43.122853,000AZ,617
2024-1015669,2024-07-16,1,Vente,430000.0,95.0,,RUE JULES ALEXANDRE RENAUX,4065,83000.0,83137,Toulon,83,,,,,,,,,,,,0,1.0,Maison,69.0,3.0,618.0,5.940247,43.127747,000AP,598
2024-1015685,2024-06-27,1,Vente,257000.0,9002.0,,PL JEAN BOURGUET,3845,83200.0,83137,Toulon,83,,,,,,,,,,,,0,2.0,Appartement,38.0,2.0,320.0,5.88802,43.121306,000DN,617
2024-1015685,2024-06-27,1,Vente,257000.0,9002.0,,PL JEAN BOURGUET,3845,83200.0,83137,Toulon,83,,,,,,,,,,,,0,2.0,Appartement,37.0,2.0,320.0,5.88802,43.121306,000DN,617
2024-1015688,2024-07-08,1,Vente,270000.0,41.0,,AV JOSEPH LOUIS ORTOLAN,4035,83100.0,83137,Toulon,83,,,,,,,,,,,,0,1.0,Maison,55.0,3.0,254.0,5.95139,43.126835,000AR,606
2024-1015719,2024-07-16,1,Vente,332500.0,65.0,,RUE EDMOND HARAUCOURT,2480,83200.0,83137,Toulon,83,,,,,,,,,,,,0,1.0,Maison,67.0,4.0,255.0,5.905243,43.13816,000DI,598
2024-1015747,2024-07-23,1,Vente,280000.0,21.0,,CHE DU JONQUET,3985,83200.0,83137,Toulon,83,,,,,,,,,,,,0,1.0,Maison,56.0,3.0,345.0,5.911021,43.140758,000DH,591
2024-1015859,2024-07-11,1,Vente,358600.0,41.0,,RUE CHANOINE BOUISSON,1396,83200.0,83137,Toulon,83,,,,,,,,,,,,0,1.0,Maison,101.0,4.0,350.0,5.903655,43.135924,000DI,603
2024-1015866,2024-07-02,1,Vente,350000.0,5.0,,AV SYLVAIN THURIN,6875,83200.0,83137,Toulon,83,,,,,,,,,,,,0,1.0,Maison,56.0,4.0,658.0,5.894375,43.140589,000DT,612
2024-1015883,2024-06-27,1,Vente,320440.0,54.0,,AV CHARLES GANTELME,1455,83200.0,83137,Toulon,83,,,,,,,,,,,,0,1.0,Maison,35.0,2.0,178.0,5.896308,43.138066,000DS,617
2024-1015986,2024-07-24,1,Vente,260000.0,8.0,,RUE JANVIER,3795,83200.0,83137,Toulon,83,,,,,,,,,,,,0,1.0,Maison,92.0,5.0,212.0,5.914986,43.134082,000CZ,590
2024-1016009,2024-07-25,1,Vente,460000.0,2184.0,,AV JOSEPH GASQUET,4030,83100.0,83137,Toulon,83,,,,,,,,,,,,0,1.0,Maison,71.0,4.0,655.0,5.97759,43.119288,000BC,589
2024-1016039,2024-07-16,1,Vente,265000.0,2138.0,,AV JOSEPH GASQUET,4030,83100.0,83137,Toulon,83,,,,,,,,,,,,0,1.0,Maison,75.0,3.0,450.0,5.976961,43.119498,000BC,598
2024-1016154,2024-07-19,1,Vente,397000.0,34.0,,IMP LOUIS,4578,83200.0,83137,Toulon,83,,,,,,,,,,,,0,2.0,Appartement,74.0,3.0,788.0,5.895177,43.127818,000DM,595
2024-1016154,2024-07-19,1,Vente,397000.0,34.0,,IMP LOUIS,4578,83200.0,83137,Toulon,83,,,,,,,,,,,,0,2.0,Appartement,66.0,3.0,788.0,5.895177,43.127818,000DM,595
2024-1016179,2024-07-12,1,Vente,315000.0,158.0,,RUE MARIUS ANDRIEU,4895,83200.0,83137,Toulon,83,,,,,,,,,,,,0,1.0,Maison,81.0,5.0,440.0,5.903274,43.126031,000CW,602
2024-1016236,2024-08-02,1,Vente,125000.0,67.0,,RUE SAINTE ADELAIDE,6550,83000.0,83137,Toulon,83,,,,,,,,,,,,0,1.0,Maison,80.0,3.0,110.0,5.939082,43.131255,000AO,581
2024-1016431,2024-07-30,1,Vente,382700.0,99.0,,AV DES ILES D OR,3705,83100.0,83137,Toulon,83,,,,,,,,,,,,0,1.0,Maison,72.0,3.0,216.0,5.976188,43.131177,000AW,584
2024-1016456,2024-07-19,1,Vente,405000.0,33.0,,CHE DE LA BARRE,0613,83000.0,83137,Toulon,83,,,,,,,,,,,,0,1.0,Maison,83.0,4.0,590.0,5.959707,43.121769,000BE,595
2024-1016555,2024-07-31,1,Vente,389525.0,37.0,,RUE MADEMOISELLE STRASSEL,4712,83200.0,83137,Toulon,83,,,,,,,,,,,,0,1.0,Maison,24.0,0.0,1085.0,5.892808,43.135287,000DR,583
2024-1016555,2024-07-31,1,Vente,389525.0,37.0,,RUE MADEMOISELLE STRASSEL,4712,83200.0,83137,Toulon,83,,,,,,,,,,,,0,1.0,Maison,89.0,5.0,1085.0,5.892808,43.135287,000DR,583
2024-1016674,2024-07-29,1,Vente,425000.0,215.0,C,CHE ARTHUR,0435,83200.0,83137,Toulon,83,,,,,,,,,,,,0,1.0,Maison,108.0,4.0,690.0,5.888932,43.129975,000DP,585
2024-1016681,2024-07-30,2,Vente,110000.0,4.0,,RUE FELIX BRUN,2810,83000.0,83137,Toulon,83,,,,,,,,,,,,0,2.0,Appartement,40.0,2.0,46.0,5.935962,43.121139,000CL,584
2024-1016681,2024-07-30,2,Vente,110000.0,4.0,,RUE FELIX BRUN,2810,83000.0,83137,Toulon,83,,,,,,,,,,,,0,2.0,Appartement,40.0,1.0,46.0,5.935962,43.121139,000CL,584
2024-1016681,2024-07-30,2,Vente,110000.0,4.0,,RUE FELIX BRUN,2810,83000.0,83137,Toulon,83,,,,,,,,,,,,0,2.0,Appartement,40.0,2.0,46.0,5.935962,43.121139,000CL,584
2024-1016681,2024-07-30,2,Vente,110000.0,4.0,,RUE FELIX BRUN,2810,83000.0,83137,Toulon,83,,,,,,,,,,,,0,2.0,Appartement,40.0,1.0,46.0,5.935962,43.121139,000CL,584
2024-1016681,2024-07-30,2,Vente,110000.0,7.0,B,AV DE BESAGNE,0873,83000.0,83137,Toulon,83,,,,,,,,,,,,0,2.0,Appartement,23.0,1.0,72.0,5.935959,43.121039,000CL,584
2024-1016681,2024-07-30,2,Vente,110000.0,7.0,B,AV DE BESAGNE,0873,83000.0,83137,Toulon,83,,,,,,,,,,,,0,2.0,Appartement,30.0,1.0,72.0,5.935959,43.121039,000CL,584
2024-1016681,2024-07-30,2,Vente,110000.0,7.0,B,AV DE BESAGNE,0873,83000.0,83137,Toulon,83,,,,,,,,,,,,0,2.0,Appartement,27.0,1.0,72.0,5.935959,43.121039,000CL,584
2024-1016681,2024-07-30,2,Vente,110000.0,7.0,B,AV DE BESAGNE,0873,83000.0,83137,Toulon,83,,,,,,,,,,,,0,2.0,Appartement,27.0,1.0,72.0,5.935959,43.121039,000CL,584
2024-1016681,2024-07-30,2,Vente,110000.0,7.0,B,AV DE BESAGNE,0873,83000.0,83137,Toulon,83,,,,,,,,,,,,0,2.0,Appartement,23.0,1.0,72.0,5.935959,43.121039,000CL,584
2024-1016681,2024-07-30,2,Vente,110000.0,7.0,B,AV DE BESAGNE,0873,83000.0,83137,Toulon,83,,,,,,,,,,,,0,2.0,Appartement,30.0,1.0,72.0,5.935959,43.121039,000CL,584
2024-1016681,2024-07-30,2,Vente,110000.0,7.0,B,AV DE BESAGNE,0873,83000.0,83137,Toulon,83,,,,,,,,,,,,0,2.0,Appartement,20.0,1.0,72.0,5.935959,43.121039,000CL,584
2024-1016681,2024-07-30,2,Vente,110000.0,7.0,B,AV DE BESAGNE,0873,83000.0,83137,Toulon,83,,,,,,,,,,,,0,2.0,Appartement,27.0,1.0,72.0,5.935959,43.121039,000CL,584
2024-1016681,2024-07-30,2,Vente,110000.0,9.0,,AV DE BESAGNE,0873,83000.0,83137,Toulon,83,,,,,,,,,,,,0,2.0,Appartement,32.0,1.0,35.0,5.935981,43.120994,000CL,584
2024-1016681,2024-07-30,2,Vente,110000.0,9.0,,AV DE BESAGNE,0873,83000.0,83137,Toulon,83,,,,,,,,,,,,0,2.0,Appartement,32.0,1.0,35.0,5.935981,43.120994,000CL,584
2024-1016681,2024-07-30,2,Vente,110000.0,9.0,,AV DE BESAGNE,0873,83000.0,83137,Toulon,83,,,,,,,,,,,,0,2.0,Appartement,32.0,1.0,35.0,5.935981,43.120994,000CL,584
2024-1016681,2024-07-30,2,Vente,110000.0,9.0,,AV DE BESAGNE,0873,83000.0,83137,Toulon,83,,,,,,,,,,,,0,2.0,Appartement,32.0,1.0,35.0,5.935981,43.120994,000CL,584
2024-1016681,2024-07-30,2,Vente,110000.0,9.0,,AV DE BESAGNE,0873,83000.0,83137,Toulon,83,,,,,,,,,,,,0,2.0,Appartement,32.0,1.0,35.0,5.935981,43.120994,000CL,584
2024-1016681,2024-07-30,2,Vente,110000.0,10.0,,RUE FELIX BRUN,2810,83000.0,83137,Toulon,83,,,,,,,,,,,,0,2.0,Appartement,25.0,1.0,32.0,5.935887,43.121018,000CL,584
2024-1016681,2024-07-30,2,Vente,110000.0,10.0,,RUE FELIX BRUN,2810,83000.0,83137,Toulon,83,,,,,,,,,,,,0,2.0,Appartement,23.0,1.0,32.0,5.935887,43.121018,000CL,584
2024-1016681,2024-07-30,2,Vente,110000.0,10.0,,RUE FELIX BRUN,2810,83000.0,83137,Toulon,83,,,,,,,,,,,,0,2.0,Appartement,23.0,1.0,32.0,5.935887,43.121018,000CL,584
2024-1016681,2024-07-30,2,Vente,110000.0,10.0,,RUE FELIX BRUN,2810,83000.0,83137,Toulon,83,,,,,,,,,,,,0,2.0,Appartement,20.0,1.0,32.0,5.935887,43.121018,000CL,584
2024-1016681,2024-07-30,2,Vente,110000.0,10.0,,RUE FELIX BRUN,2810,83000.0,83137,Toulon,83,,,,,,,,,,,,0,2.0,Appartement,23.0,1.0,32.0,5.935887,43.121018,000CL,584
2024-1016681,2024-07-30,2,Vente,110000.0,11.0,,AV DE BESAGNE,0873,83000.0,83137,Toulon,83,,,,,,,,,,,,0,2.0,Appartement,25.0,2.0,36.0,5.935958,43.120958,000CL,584
2024-1016681,2024-07-30,2,Vente,110000.0,11.0,,AV DE BESAGNE,0873,83000.0,83137,Toulon,83,,,,,,,,,,,,0,2.0,Appartement,25.0,2.0,36.0,5.935958,43.120958,000CL,584
2024-1016681,2024-07-30,2,Vente,110000.0,11.0,,AV DE BESAGNE,0873,83000.0,83137,Toulon,83,,,,,,,,,,,,0,2.0,Appartement,21.0,1.0,36.0,5.935958,43.120958,000CL,584
2024-1016681,2024-07-30,2,Vente,110000.0,11.0,,AV DE BESAGNE,0873,83000.0,83137,Toulon,83,,,,,,,,,,,,0,2.0,Appartement,22.0,2.0,36.0,5.935958,43.120958,000CL,584
2024-1016681,2024-07-30,2,Vente,110000.0,11.0,,AV DE BESAGNE,0873,83000.0,83137,Toulon,83,,,,,,,,,,,,0,2.0,Appartement,25.0,2.0,36.0,5.935958,43.120958,000CL,584
2024-1016681,2024-07-30,2,Vente,110000.0,13.0,,AV DE BESAGNE,0873,83000.0,83137,Toulon,83,,,,,,,,,,,,0,2.0,Appartement,38.0,2.0,48.0,5.935906,43.120924,000CL,584
2024-1016681,2024-07-30,2,Vente,110000.0,13.0,,AV DE BESAGNE,0873,83000.0,83137,Toulon,83,,,,,,,,,,,,0,2.0,Appartement,39.0,2.0,48.0,5.935906,43.120924,000CL,584
2024-1016681,2024-07-30,2,Vente,110000.0,13.0,,AV DE BESAGNE,0873,83000.0,83137,Toulon,83,,,,,,,,,,,,0,2.0,Appartement,36.0,1.0,48.0,5.935906,43.120924,000CL,584
2024-1016681,2024-07-30,2,Vente,110000.0,13.0,,AV DE BESAGNE,0873,83000.0,83137,Toulon,83,,,,,,,,,,,,0,2.0,Appartement,34.0,2.0,48.0,5.935906,43.120924,000CL,584
2024-1016681,2024-07-30,2,Vente,110000.0,13.0,,AV DE BESAGNE,0873,83000.0,83137,Toulon,83,,,,,,,,,,,,0,2.0,Appartement,24.0,1.0,48.0,5.935906,43.120924,000CL,584
2024-1016681,2024-07-30,2,Vente,110000.0,12.0,,RUE FELIX BRUN,2810,83000.0,83137,Toulon,83,,,,,,,,,,,,0,2.0,Appartement,28.0,1.0,38.0,5.935868,43.120976,000CL,584
2024-1016681,2024-07-30,2,Vente,110000.0,12.0,,RUE FELIX BRUN,2810,83000.0,83137,Toulon,83,,,,,,,,,,,,0,2.0,Appartement,29.0,1.0,38.0,5.935868,43.120976,000CL,584
2024-1016681,2024-07-30,2,Vente,110000.0,12.0,,RUE FELIX BRUN,2810,83000.0,83137,Toulon,83,,,,,,,,,,,,0,2.0,Appartement,28.0,2.0,38.0,5.935868,43.120976,000CL,584
2024-1016681,2024-07-30,2,Vente,110000.0,12.0,,RUE FELIX BRUN,2810,83000.0,83137,Toulon,83,,,,,,,,,,,,0,2.0,Appartement,28.0,2.0,38.0,5.935868,43.120976,000CL,584
2024-1016681,2024-07-30,2,Vente,110000.0,18.0,,RUE LAINDET LALONDE,4250,83000.0,83137,Toulon,83,,,,,,,,,,,,0,2.0,Appartement,41.0,2.0,48.0,5.935835,43.120939,000CL,584
2024-1016681,2024-07-30,2,Vente,110000.0,18.0,,RUE LAINDET LALONDE,4250,83000.0,83137,Toulon,83,,,,,,,,,,,,0,2.0,Appartement,41.0,2.0,48.0,5.935835,43.120939,000CL,584
2024-1016681,2024-07-30,2,Vente,110000.0,18.0,,RUE LAINDET LALONDE,4250,83000.0,83137,Toulon,83,,,,,,,,,,,,0,2.0,Appartement,41.0,2.0,48.0,5.935835,43.120939,000CL,584
2024-1016681,2024-07-30,2,Vente,110000.0,18.0,,RUE LAINDET LALONDE,4250,83000.0,83137,Toulon,83,,,,,,,,,,,,0,2.0,Appartement,41.0,2.0,48.0,5.935835,43.120939,000CL,584
2024-1016690,2024-08-05,1,Vente,193000.0,142.0,,BD DU FARON,2770,83200.0,83137,Toulon,83,,,,,,,,,,,,0,1.0,Maison,22.0,0.0,133.0,5.930095,43.135624,000AM,578
2024-1016690,2024-08-05,1,Vente,193000.0,142.0,,BD DU FARON,2770,83200.0,83137,Toulon,83,,,,,,,,,,,,0,1.0,Maison,72.0,6.0,133.0,5.930095,43.135624,000AM,578
2024-1016774,2024-07-22,1,Vente,280000.0,1097.0,,CHE DES FAVIERES,2793,83200.0,83137,Toulon,83,,,,,,,,,,,,0,1.0,Maison,118.0,4.0,581.0,5.964852,43.152899,000AC,592
2024-1016774,2024-07-22,1,Vente,280000.0,1097.0,,CHE DES FAVIERES,2793,83200.0,83137,Toulon,83,,,,,,,,,,,,0,1.0,Maison,118.0,4.0,1320.0,5.964852,43.152899,000AC,592
2024-1016819,2024-07-29,1,Vente,324000.0,34.0,,RUE PYANET,6040,83000.0,83137,Toulon,83,,,,,,,,,,,,0,1.0,Maison,85.0,4.0,140.0,5.94447,43.127475,000AR,585
2024-1016821,2024-07-29,1,Vente,200000.0,96.0,,RUE ROSA BONHEUR,6335,83000.0,83137,Toulon,83,,,,,,,,,,,,0,1.0,Maison,100.0,4.0,276.0,5.94336,43.126808,000AR,585
2024-1016906,2024-08-05,1,Vente,285000.0,119.0,,RUE REINE JEANNE,6160,83000.0,83137,Toulon,83,,,,,,,,,,,,0,1.0,Maison,53.0,3.0,185.0,5.925932,43.132765,000AN,578
2024-1016942,2024-08-01,1,Vente,344750.0,2668.0,A,AV DE LA RESISTANCE,6180,83000.0,83137,Toulon,83,,,,,,,,,,,,0,2.0,Appartement,102.0,6.0,3164.0,5.972342,43.109133,000BL,582
2024-1016942,2024-08-01,1,Vente,344750.0,2668.0,A,AV DE LA RESISTANCE,6180,83000.0,83137,Toulon,83,,,,,,,,,,,,0,2.0,Appartement,44.0,2.0,3164.0,5.972342,43.109133,000BL,582
2024-1016942,2024-08-01,1,Vente,344750.0,2668.0,A,AV DE LA RESISTANCE,6180,83000.0,83137,Toulon,83,,,,,,,,,,,,0,1.0,Maison,33.0,2.0,3164.0,5.972342,43.109133,000BL,582
2024-1016971,2024-07-30,1,Vente,228000.0,107.0,,RUE REINE JEANNE,6160,83000.0,83137,Toulon,83,,,,,,,,,,,,0,1.0,Maison,52.0,3.0,224.0,5.925832,43.132795,000AN,584
2024-1016976,2024-07-31,1,Vente,316000.0,46.0,,MTE CASSE COU,1249,83100.0,83137,Toulon,83,,,,,,,,,,,,0,1.0,Maison,60.0,1.0,143.0,5.956223,43.13171,000AI,583
2024-1016987,2024-08-14,1,Vente,320000.0,56.0,,RUE LT AVI PAUL JOSE LEONETTI,4481,83000.0,83137,Toulon,83,,,,,,,,,,,,0,2.0,Appartement,61.0,3.0,800.0,5.938996,43.135942,000AL,569
2024-1016987,2024-08-14,1,Vente,320000.0,56.0,,RUE LT AVI PAUL JOSE LEONETTI,4481,83000.0,83137,Toulon,83,,,,,,,,,,,,0,2.0,Appartement,61.0,3.0,800.0,5.938996,43.135942,000AL,569
2024-1017016,2024-08-21,1,Vente,350000.0,125.0,,RUE LOUIS JOUVET,4645,83200.0,83137,Toulon,83,,,,,,,,,,,,0,1.0,Maison,79.0,5.0,585.0,5.903257,43.144196,000DV,562
2024-1017030,2024-08-12,1,Vente,350000.0,123.0,,AV DES ILES D OR,3705,83100.0,83137,Toulon,83,,,,,,,,,,,,0,1.0,Maison,75.0,4.0,556.0,5.976475,43.131038,000AW,571
2024-1017073,2024-08-07,1,Vente,220000.0,264.0,,AV BIR HAKEIM,0901,83200.0,83137,Toulon,83,,,,,,,,,,,,0,2.0,Appartement,24.0,1.0,122.0,5.909689,43.131541,000CX,576
2024-1017073,2024-08-07,1,Vente,220000.0,264.0,,AV BIR HAKEIM,0901,83200.0,83137,Toulon,83,,,,,,,,,,,,0,2.0,Appartement,48.0,2.0,122.0,5.909689,43.131541,000CX,576
2024-1017073,2024-08-07,1,Vente,220000.0,264.0,,AV BIR HAKEIM,0901,83200.0,83137,Toulon,83,,,,,,,,,,,,0,2.0,Appartement,24.0,1.0,122.0,5.909689,43.131541,000CX,576
2024-1017078,2024-08-23,1,Vente,192000.0,16.0,B,RUE DE LA GLACIERE,3400,83000.0,83137,Toulon,83,,,,,,,,,,,,0,2.0,Appartement,38.0,2.0,71.0,5.932174,43.121849,000CN,560
2024-1017078,2024-08-23,1,Vente,192000.0,16.0,B,RUE DE LA GLACIERE,3400,83000.0,83137,Toulon,83,,,,,,,,,,,,0,2.0,Appartement,48.0,2.0,71.0,5.932174,43.121849,000CN,560
2024-1017078,2024-08-23,1,Vente,192000.0,16.0,B,RUE DE LA GLACIERE,3400,83000.0,83137,Toulon,83,,,,,,,,,,,,0,2.0,Appartement,48.0,2.0,71.0,5.932174,43.121849,000CN,560
2024-1017078,2024-08-23,1,Vente,192000.0,16.0,B,RUE DE LA GLACIERE,3400,83000.0,83137,Toulon,83,,,,,,,,,,,,0,2.0,Appartement,50.0,2.0,71.0,5.932174,43.121849,000CN,560
2024-1017078,2024-08-23,1,Vente,192000.0,16.0,B,RUE DE LA GLACIERE,3400,83000.0,83137,Toulon,83,,,,,,,,,,,,0,2.0,Appartement,40.0,2.0,71.0,5.932174,43.121849,000CN,560
2024-1017120,2024-08-23,1,Vente,500000.0,365.0,,AV DE LA RESISTANCE,6180,83000.0,83137,Toulon,83,,,,,,,,,,,,0,2.0,Appartement,25.0,1.0,190.0,5.948734,43.116022,000BR,560
2024-1017120,2024-08-23,1,Vente,500000.0,365.0,,AV DE LA RESISTANCE,6180,83000.0,83137,Toulon,83,,,,,,,,,,,,0,2.0,Appartement,25.0,2.0,190.0,5.948734,43.116022,000BR,560
2024-1017120,2024-08-23,1,Vente,500000.0,365.0,,AV DE LA RESISTANCE,6180,83000.0,83137,Toulon,83,,,,,,,,,,,,0,2.0,Appartement,25.0,1.0,190.0,5.948734,43.116022,000BR,560
2024-1017120,2024-08-23,1,Vente,500000.0,365.0,,AV DE LA RESISTANCE,6180,83000.0,83137,Toulon,83,,,,,,,,,,,,0,2.0,Appartement,28.0,2.0,190.0,5.948734,43.116022,000BR,560
2024-1017120,2024-08-23,1,Vente,500000.0,365.0,,AV DE LA RESISTANCE,6180,83000.0,83137,Toulon,83,,,,,,,,,,,,0,2.0,Appartement,25.0,2.0,190.0,5.948734,43.116022,000BR,560
2024-1017120,2024-08-23,1,Vente,500000.0,365.0,,AV DE LA RESISTANCE,6180,83000.0,83137,Toulon,83,,,,,,,,,,,,0,2.0,Appartement,25.0,1.0,190.0,5.948734,43.116022,000BR,560
2024-1017120,2024-08-23,1,Vente,500000.0,365.0,,AV DE LA RESISTANCE,6180,83000.0,83137,Toulon,83,,,,,,,,,,,,0,2.0,Appartement,27.0,2.0,190.0,5.948734,43.116022,000BR,560
2024-1017120,2024-08-23,1,Vente,500000.0,365.0,,AV DE LA RESISTANCE,6180,83000.0,83137,Toulon,83,,,,,,,,,,,,0,2.0,Appartement,27.0,2.0,190.0,5.948734,43.116022,000BR,560
2024-1017188,2024-08-22,1,Vente,350000.0,333.0,,CHE ARTHUR,0435,83200.0,83137,Toulon,83,,,,,,,,,,,,0,1.0,Maison,62.0,3.0,700.0,5.888225,43.130288,000DP,561
2024-1017200,2024-08-12,1,Vente,465000.0,71.0,,IMP AMBROISE THOMAS,0180,83100.0,83137,Toulon,83,,,,,,,,,,,,0,1.0,Maison,82.0,4.0,560.0,5.951888,43.127773,000AR,571
2024-1017289,2024-08-27,1,Vente,475000.0,13.0,,RUE VALERE BERNARD,7060,83000.0,83137,Toulon,83,,,,,,,,,,,,0,1.0,Maison,92.0,3.0,223.0,5.969777,43.115219,000BI,556
2024-1017371,2024-09-03,1,Vente,490000.0,117.0,,RUE BELVEDERE,0800,83000.0,83137,Toulon,83,,,,,,,,,,,,0,1.0,Maison,59.0,2.0,494.0,5.936159,43.107861,000BX,549
2024-1017509,2024-09-05,1,Vente,323400.0,1021.0,,CHE MON PARADIS,5280,83200.0,83137,Toulon,83,,,,,,,,,,,,0,1.0,Maison,56.0,3.0,338.0,5.892871,43.137809,000DT,547
2024-1017572,2024-09-11,1,Vente,437464.0,44.0,,RUE DESCARTES,2175,83200.0,83137,Toulon,83,,,,,,,,,,,,0,1.0,Maison,100.0,5.0,533.0,5.892184,43.127962,000DM,541
2024-1017585,2024-09-06,1,Vente,470000.0,1.0,,AV SYLVAIN THURIN,6875,83200.0,83137,Toulon,83,,,,,,,,,,,,0,2.0,Appartement,50.0,3.0,510.0,5.894168,43.140247,000DT,546
2024-1017585,2024-09-06,1,Vente,470000.0,1.0,,AV SYLVAIN THURIN,6875,83200.0,83137,Toulon,83,,,,,,,,,,,,0,2.0,Appartement,35.0,2.0,510.0,5.894168,43.140247,000DT,546
2024-1017585,2024-09-06,1,Vente,470000.0,1.0,,AV SYLVAIN THURIN,6875,83200.0,83137,Toulon,83,,,,,,,,,,,,0,2.0,Appartement,50.0,3.0,510.0,5.894168,43.140247,000DT,546
2024-1017585,2024-09-06,1,Vente,470000.0,1.0,,AV SYLVAIN THURIN,6875,83200.0,83137,Toulon,83,,,,,,,,,,,,0,2.0,Appartement,35.0,2.0,510.0,5.894168,43.140247,000DT,546
2024-1017585,2024-09-06,1,Vente,470000.0,1.0,,AV SYLVAIN THURIN,6875,83200.0,83137,Toulon,83,,,,,,,,,,,,0,2.0,Appartement,50.0,3.0,510.0,5.894168,43.140247,000DT,546
2024-1017585,2024-09-06,1,Vente,470000.0,1.0,,AV SYLVAIN THURIN,6875,83200.0,83137,Toulon,83,,,,,,,,,,,,0,2.0,Appartement,35.0,2.0,510.0,5.894168,43.140247,000DT,546
2024-1017614,2024-08-30,1,Vente,300000.0,165.0,,AV DE SAVOIE,6685,83000.0,83137,Toulon,83,,,,,,,,,,,,0,1.0,Maison,63.0,4.0,600.0,5.964753,43.117124,000BH,553
2024-1017615,2024-09-06,1,Vente,255000.0,5.0,,RUE MAGENTA,4720,83200.0,83137,Toulon,83,,,,,,,,,,,,0,2.0,Appartement,30.0,2.0,220.0,5.90624,43.1317,000DK,546
2024-1017615,2024-09-06,1,Vente,255000.0,5.0,,RUE MAGENTA,4720,83200.0,83137,Toulon,83,,,,,,,,,,,,0,2.0,Appartement,63.0,2.0,220.0,5.90624,43.1317,000DK,546
2024-1017615,2024-09-06,1,Vente,255000.0,5.0,,RUE MAGENTA,4720,83200.0,83137,Toulon,83,,,,,,,,,,,,0,2.0,Appartement,30.0,2.0,285.0,5.90624,43.1317,000DK,546
2024-1017615,2024-09-06,1,Vente,255000.0,5.0,,RUE MAGENTA,4720,83200.0,83137,Toulon,83,,,,,,,,,,,,0,2.0,Appartement,63.0,2.0,285.0,5.90624,43.1317,000DK,546
2024-1017661,2024-08-26,1,Vente,74000.0,4.0,,RUE LEFEBVRE DE CERISY,4385,83200.0,83137,Toulon,83,,,,,,,,,,,,0,1.0,Maison,65.0,4.0,263.0,5.899947,43.133827,000DL,557
2024-1017691,2024-09-10,1,Vente,250000.0,61.0,,IMP DE LA PIVOTTE,5839,83100.0,83137,Toulon,83,,,,,,,,,,,,0,2.0,Appartement,44.0,2.0,344.0,5.970067,43.134133,000AH,542
2024-1017691,2024-09-10,1,Vente,250000.0,61.0,,IMP DE LA PIVOTTE,5839,83100.0,83137,Toulon,83,,,,,,,,,,,,0,2.0,Appartement,30.0,1.0,344.0,5.970067,43.134133,000AH,542
2024-1017799,2024-08-26,1,Vente,210000.0,4.0,,BD JOUVE,4055,83100.0,83137,Toulon,83,,,,,,,,,,,,0,1.0,Maison,60.0,3.0,299.0,5.95918,43.127798,000AS,557
2024-1017800,2024-09-11,1,Vente,345135.0,132.0,,IMP DU GRAND BAU,3441,83200.0,83137,Toulon,83,,,,,,,,,,,,0,1.0,Maison,103.0,4.0,824.0,5.928518,43.160205,000ES,541
2024-1017838,2024-09-18,1,Vente,456200.0,917.0,,CHE BARTHELEMY FLORENT,0618,83200.0,83137,Toulon,83,,,,,,,,,,,,0,1.0,Maison,100.0,4.0,640.0,5.917173,43.155004,000ER,534
2024-1017859,2024-08-30,1,Vente,440000.0,190.0,,CHE DES FOURS A CHAUX,2965,83200.0,83137,Toulon,83,,,,,,,,,,,,0,1.0,Maison,105.0,4.0,385.0,5.904556,43.14812,000DV,553
2024-1017862,2024-09-12,1,Vente,368000.0,138.0,,RUE LOUIS JOUVET,4645,83200.0,83137,Toulon,83,,,,,,,,,,,,0,1.0,Maison,79.0,5.0,521.0,5.903307,43.143805,000DV,540
2024-1017943,2024-09-12,1,Vente,306600.0,98.0,,RUE VALES,7070,83200.0,83137,Toulon,83,,,,,,,,,,,,0,1.0,Maison,43.0,2.0,185.0,5.917348,43.136048,000CZ,540
2024-1018083,2024-09-18,1,Vente,420000.0,1555.0,,AV JOSEPH GASQUET,4030,83100.0,83137,Toulon,83,,,,,,,,,,,,0,2.0,Appartement,34.0,1.0,930.0,5.97179,43.122794,000BD,534
2024-1018083,2024-09-18,1,Vente,420000.0,1555.0,,AV JOSEPH GASQUET,4030,83100.0,83137,Toulon,83,,,,,,,,,,,,0,2.0,Appartement,90.0,6.0,930.0,5.97179,43.122794,000BD,534
2024-1018100,2024-09-19,1,Vente,245000.0,9009.0,,CHE DE LA BOSQUETTE,1000,83200.0,83137,Toulon,83,,,,,,,,,,,,0,2.0,Appartement,72.0,5.0,760.0,5.975712,43.138238,000AD,533
2024-1018100,2024-09-19,1,Vente,245000.0,9009.0,,CHE DE LA BOSQUETTE,1000,83200.0,83137,Toulon,83,,,,,,,,,,,,0,2.0,Appartement,38.0,2.0,760.0,5.975712,43.138238,000AD,533
2024-1018108,2024-09-17,1,Vente,155000.0,7.0,A,RUE JULES MOROSELLI,4090,83200.0,83137,Toulon,83,,,,,,,,,,,,0,2.0,Appartement,41.0,2.0,78.0,5.918584,43.135889,000CZ,535
2024-1018108,2024-09-17,1,Vente,155000.0,7.0,A,RUE JULES MOROSELLI,4090,83200.0,83137,Toulon,83,,,,,,,,,,,,0,2.0,Appartement,42.0,2.0,78.0,5.918584,43.135889,000CZ,535
2024-1018159,2024-09-13,1,Vente,325000.0,344.0,,CHE DE GRATTE SEMELLE,3455,83000.0,83137,Toulon,83,,,,,,,,,,,,0,1.0,Maison,100.0,4.0,387.0,5.957867,43.119047,000BP,539
2024-1018162,2024-09-13,1,Vente,220000.0,9002.0,,CHE DU MOULIN ROSE,5329,83200.0,83137,Toulon,83,,,,,,,,,,,,0,1.0,Maison,70.0,4.0,140.0,5.916542,43.156295,000ER,539
2024-1018182,2024-09-02,1,Vente,168000.0,8.0,,RUE DU CHEMIN DE FER,1520,83200.0,83137,Toulon,83,,,,,,,,,,,,0,2.0,Appartement,38.0,2.0,94.0,5.904474,43.13062,000DL,550
2024-1018182,2024-09-02,1,Vente,168000.0,8.0,,RUE DU CHEMIN DE FER,1520,83200.0,83137,Toulon,83,,,,,,,,,,,,0,2.0,Appartement,38.0,2.0,94.0,5.904474,43.13062,000DL,550
2024-1018182,2024-09-02,1,Vente,168000.0,8.0,,RUE DU CHEMIN DE FER,1520,83200.0,83137,Toulon,83,,,,,,,,,,,,0,2.0,Appartement,45.0,2.0,94.0,5.904474,43.13062,000DL,550
2024-1018219,2024-09-17,1,Vente,414250.0,13.0,,AV AUGUSTE AIGUIER,0495,83200.0,83137,Toulon,83,,,,,,,,,,,,0,1.0,Maison,77.0,3.0,366.0,5.905527,43.135873,000DK,535
2024-1018241,2024-09-13,2,Vente,405020.0,363.0,,CHE DE RIGOUMEL,6247,83200.0,83137,Toulon,83,,,,,,,,,,,,0,1.0,Maison,96.0,5.0,715.0,5.904587,43.144784,000DV,539
2024-1018425,2024-09-27,1,Vente,285000.0,32.0,,RUE MAGENTA,4720,83200.0,83137,Toulon,83,,,,,,,,,,,,0,1.0,Maison,120.0,4.0,258.0,5.908454,43.132344,000DK,525
2024-1018445,2024-09-24,1,Vente,285000.0,36.0,,RUE EUGENE MANUEL,2720,83200.0,83137,Toulon,83,,,,,,,,,,,,0,1.0,Maison,77.0,4.0,432.0,5.900552,43.128944,000DL,528
2024-1018459,2024-09-25,1,Vente,443100.0,105.0,D,IMP RIGOUMEL,6248,83200.0,83137,Toulon,83,,,,,,,,,,,,0,1.0,Maison,95.0,4.0,767.0,5.906901,43.141953,000DV,527
2024-1018486,2024-10-03,1,Vente,435000.0,11.0,,RUE RICHARD ANDRIEU,6240,83000.0,83137,Toulon,83,,,,,,,,,,,,0,2.0,Appartement,48.0,2.0,77.0,5.932317,43.122949,000CN,519
2024-1018486,2024-10-03,1,Vente,435000.0,11.0,,RUE RICHARD ANDRIEU,6240,83000.0,83137,Toulon,83,,,,,,,,,,,,0,2.0,Appartement,48.0,2.0,77.0,5.932317,43.122949,000CN,519
2024-1018486,2024-10-03,1,Vente,435000.0,11.0,,RUE RICHARD ANDRIEU,6240,83000.0,83137,Toulon,83,,,,,,,,,,,,0,2.0,Appartement,48.0,2.0,77.0,5.932317,43.122949,000CN,519
2024-1018486,2024-10-03,1,Vente,435000.0,11.0,,RUE RICHARD ANDRIEU,6240,83000.0,83137,Toulon,83,,,,,,,,,,,,0,2.0,Appartement,48.0,2.0,77.0,5.932317,43.122949,000CN,519
2024-1018486,2024-10-03,1,Vente,435000.0,11.0,,RUE RICHARD ANDRIEU,6240,83000.0,83137,Toulon,83,,,,,,,,,,,,0,2.0,Appartement,48.0,2.0,77.0,5.932317,43.122949,000CN,519
2024-1018513,2024-10-04,1,Vente,367800.0,342.0,,AV DES ILES D OR,3705,83100.0,83137,Toulon,83,,,,,,,,,,,,0,1.0,Maison,85.0,4.0,490.0,5.975764,43.129358,000AW,518
2024-1018579,2024-09-23,1,Vente,300000.0,9007.0,,RUE VALENTIN HAUY,7055,83200.0,83137,Toulon,83,,,,,,,,,,,,0,1.0,Maison,52.0,3.0,130.0,5.901472,43.138153,000DS,529
2024-1018631,2024-09-09,1,Vente,320000.0,65.0,,RUE ANDRE CHENIER,0295,83100.0,83137,Toulon,83,,,,,,,,,,,,0,1.0,Maison,59.0,3.0,273.0,5.961628,43.12776,000AS,543
2024-1018790,2024-09-20,1,Vente,260000.0,21.0,,RUE RICHELIEU,6245,83100.0,83137,Toulon,83,,,,,,,,,,,,0,1.0,Maison,60.0,3.0,126.0,5.95215,43.124455,000CH,532
2024-1018825,2024-10-01,1,Vente,88285.71,28.0,,RUE CHARLOUN RIEU,1480,83000.0,83137,Toulon,83,,,,,,,,,,,,0,1.0,Maison,42.0,2.0,184.0,5.967192,43.120866,000BH,521
2024-1018857,2024-10-14,1,Vente,318000.0,378.0,,AV DES ILES D OR,3705,83100.0,83137,Toulon,83,,,,,,,,,,,,0,1.0,Maison,89.0,3.0,815.0,5.975406,43.129062,000AW,508
2024-1018877,2024-10-10,1,Vente,350000.0,523.0,,CHE DE LA PAVEIGNE,5637,83200.0,83137,Toulon,83,,,,,,,,,,,,0,1.0,Maison,80.0,3.0,137.0,5.892109,43.14903,000DZ,512
2024-1018899,2024-09-26,1,Vente,150000.0,30.0,,AV VAL FLEURI,6969,83000.0,83137,Toulon,83,,,,,,,,,,,,0,1.0,Maison,51.0,3.0,100.0,5.937997,43.136022,000AL,526
2024-1018935,2024-09-17,1,Vente,365000.0,24.0,,IMP DES DAMES,2050,83100.0,83137,Toulon,83,,,,,,,,,,,,0,1.0,Maison,62.0,3.0,190.0,5.976679,43.134175,000AV,535
2024-1019054,2024-10-08,1,Vente,220000.0,113.0,,AV MIREILLE,5185,83100.0,83137,Toulon,83,,,,,,,,,,,,0,1.0,Maison,50.0,3.0,420.0,5.972253,43.124438,000BD,514
2024-1019093,2024-10-09,1,Vente,281900.0,9.0,,IMP MAISTRE,4755,83000.0,83137,Toulon,83,,,,,,,,,,,,0,1.0,Maison,70.0,2.0,230.0,5.94371,43.129587,000AR,513
2024-1019133,2024-10-07,1,Vente,350000.0,7.0,,RUE GARIBALDI,3170,83000.0,83137,Toulon,83,,,,,,,,,,,,0,2.0,Appartement,27.0,1.0,77.0,5.935632,43.121331,000CL,515
2024-1019133,2024-10-07,1,Vente,350000.0,7.0,,RUE GARIBALDI,3170,83000.0,83137,Toulon,83,,,,,,,,,,,,0,2.0,Appartement,26.0,1.0,77.0,5.935632,43.121331,000CL,515
2024-1019133,2024-10-07,1,Vente,350000.0,7.0,,RUE GARIBALDI,3170,83000.0,83137,Toulon,83,,,,,,,,,,,,0,2.0,Appartement,27.0,1.0,77.0,5.935632,43.121331,000CL,515
2024-1019133,2024-10-07,1,Vente,350000.0,7.0,,RUE GARIBALDI,3170,83000.0,83137,Toulon,83,,,,,,,,,,,,0,2.0,Appartement,26.0,1.0,77.0,5.935632,43.121331,000CL,515
2024-1019133,2024-10-07,1,Vente,350000.0,7.0,,RUE GARIBALDI,3170,83000.0,83137,Toulon,83,,,,,,,,,,,,0,2.0,Appartement,15.0,1.0,77.0,5.935632,43.121331,000CL,515
2024-1019133,2024-10-07,1,Vente,350000.0,7.0,,RUE GARIBALDI,3170,83000.0,83137,Toulon,83,,,,,,,,,,,,0,2.0,Appartement,26.0,1.0,77.0,5.935632,43.121331,000CL,515
2024-1019133,2024-10-07,1,Vente,350000.0,7.0,,RUE GARIBALDI,3170,83000.0,83137,Toulon,83,,,,,,,,,,,,0,2.0,Appartement,27.0,1.0,77.0,5.935632,43.121331,000CL,515
2024-1019133,2024-10-07,1,Vente,350000.0,7.0,,RUE GARIBALDI,3170,83000.0,83137,Toulon,83,,,,,,,,,,,,0,2.0,Appartement,28.0,1.0,77.0,5.935632,43.121331,000CL,515
2024-1019133,2024-10-07,1,Vente,350000.0,7.0,,RUE GARIBALDI,3170,83000.0,83137,Toulon,83,,,,,,,,,,,,0,2.0,Appartement,27.0,1.0,77.0,5.935632,43.121331,000CL,515
2024-1019133,2024-10-07,1,Vente,350000.0,7.0,,RUE GARIBALDI,3170,83000.0,83137,Toulon,83,,,,,,,,,,,,0,2.0,Appartement,26.0,1.0,77.0,5.935632,43.121331,000CL,515
2024-1019133,2024-10-07,1,Vente,350000.0,7.0,,RUE GARIBALDI,3170,83000.0,83137,Toulon,83,,,,,,,,,,,,0,2.0,Appartement,26.0,1.0,77.0,5.935632,43.121331,000CL,515
2024-1019133,2024-10-07,1,Vente,350000.0,7.0,,RUE GARIBALDI,3170,83000.0,83137,Toulon,83,,,,,,,,,,,,0,2.0,Appartement,27.0,1.0,77.0,5.935632,43.121331,000CL,515
2024-1019153,2024-09-30,1,Vente,145000.0,145.0,,BD AZAN,0560,83200.0,83137,Toulon,83,,,,,,,,,,,,0,1.0,Maison,35.0,1.0,127.0,5.916084,43.13797,000DH,522
2024-1019227,2024-10-11,1,Vente,246960.0,256.0,,CHE DE LA CHAPELLE NOTRE DAME,1410,83200.0,83137,Toulon,83,,,,,,,,,,,,0,1.0,Maison,74.0,4.0,448.0,5.90172,43.149781,000DY,511
2024-1019388,2024-10-09,1,Vente,320000.0,22.0,,RUE DU GABON,3098,83200.0,83137,Toulon,83,,,,,,,,,,,,0,1.0,Maison,77.0,4.0,478.0,5.887352,43.130921,000DP,513
2024-1019408,2024-10-18,1,Vente,495000.0,756.0,,CHE DE LA BARRE,0613,83000.0,83137,Toulon,83,,,,,,,,,,,,0,1.0,Maison,72.0,4.0,430.0,5.963528,43.120583,000BH,504
2024-1019442,2024-10-21,1,Vente,190000.0,36.0,,BD SAINT JACQUES,6490,83200.0,83137,Toulon,83,,,,,,,,,,,,0,1.0,Maison,56.0,3.0,174.0,5.903198,43.132681,000DL,501
2024-1019444,2024-10-18,1,Vente,373190.0,1056.0,,CD 46,2167,83200.0,83137,Toulon,83,,,,,,,,,,,,0,1.0,Maison,100.0,4.0,500.0,5.939432,43.164885,000ET,504
2024-1019444,2024-10-18,1,Vente,373190.0,1056.0,,CD 46,2167,83200.0,83137,Toulon,83,,,,,,,,,,,,0,1.0,Maison,100.0,4.0,500.0,5.939432,43.164885,000ET,504
2024-1019455,2024-10-07,1,Vente,340000.0,401.0,,AV AUGUSTE BATTAREL,0500,83200.0,83137,Toulon,83,,,,,,,,,,,,0,1.0,Maison,78.0,3.0,292.0,5.905871,43.153228,000DY,515
2024-1019468,2024-10-21,1,Vente,430000.0,1.0,,RUE MURAT,5355,83200.0,83137,Toulon,83,,,,,,,,,,,,0,2.0,Appartement,50.0,3.0,180.0,5.906265,43.130223,000CW,501
2024-1019468,2024-10-21,1,Vente,430000.0,1.0,,RUE MURAT,5355,83200.0,83137,Toulon,83,,,,,,,,,,,,0,2.0,Appartement,45.0,3.0,180.0,5.906265,43.130223,000CW,501
2024-1019468,2024-10-21,1,Vente,430000.0,1.0,,RUE MURAT,5355,83200.0,83137,Toulon,83,,,,,,,,,,,,0,2.0,Appartement,50.0,3.0,180.0,5.906265,43.130223,000CW,501
2024-1019540,2024-10-14,1,Vente,200000.0,194.0,,CHE DE LA BATTERIE BASSE,0636,83000.0,83137,Toulon,83,,,,,,,,,,,,0,1.0,Maison,28.0,1.0,151.0,5.964745,43.107829,000BM,508
2024-1019677,2024-10-28,1,Vente,395000.0,629.0,,BD MARECHAL JOFFRE,4830,83100.0,83137,Toulon,83,,,,,,,,,,,,0,2.0,Appartement,65.0,3.0,375.0,5.955361,43.124736,000CH,494
2024-1019677,2024-10-28,1,Vente,395000.0,629.0,,BD MARECHAL JOFFRE,4830,83100.0,83137,Toulon,83,,,,,,,,,,,,0,2.0,Appartement,33.0,2.0,375.0,5.955361,43.124736,000CH,494
2024-1019677,2024-10-28,1,Vente,395000.0,629.0,,BD MARECHAL JOFFRE,4830,83100.0,83137,Toulon,83,,,,,,,,,,,,0,2.0,Appartement,37.0,2.0,375.0,5.955361,43.124736,000CH,494
2024-1019678,2024-11-04,1,Vente,342000.0,9003.0,,PL MARIUS CHAMPAGNE,4900,83200.0,83137,Toulon,83,,,,,,,,,,,,0,1.0,Maison,69.0,4.0,101.0,5.906721,43.137425,000DI,487
2024-1019701,2024-10-21,1,Vente,400000.0,15.0,,TRA PARC SAINT JEAN,5561,83100.0,83137,Toulon,83,,,,,,,,,,,,0,1.0,Maison,70.0,4.0,193.0,5.958526,43.132187,000AI,501
2024-1019717,2024-10-31,1,Vente,243160.0,92.0,,BD BOURCIER,1020,83200.0,83137,Toulon,83,,,,,,,,,,,,0,1.0,Maison,60.0,4.0,88.0,5.906138,43.138275,000DI,491
2024-1019742,2024-11-05,1,Vente,125000.0,42.0,,RUE DES MARGUERITES,4870,83200.0,83137,Toulon,83,,,,,,,,,,,,0,1.0,Maison,28.0,1.0,227.0,5.902725,43.133638,000DL,486
2024-1019742,2024-11-05,1,Vente,125000.0,42.0,,RUE DES MARGUERITES,4870,83200.0,83137,Toulon,83,,,,,,,,,,,,0,1.0,Maison,57.0,3.0,227.0,5.902725,43.133638,000DL,486
2024-1019777,2024-10-25,1,Vente,436715.0,11.0,,RUE ANTOINE BONNET,0340,83000.0,83137,Toulon,83,,,,,,,,,,,,0,1.0,Maison,84.0,5.0,468.0,5.921872,43.130643,000CY,497
2024-1019796,2024-10-25,1,Vente,285000.0,268.0,,CHE DE MONEIRET,5240,83200.0,83137,Toulon,83,,,,,,,,,,,,0,1.0,Maison,70.0,5.0,312.0,5.894631,43.143301,000EH,497
2024-1019806,2024-10-29,1,Vente,370000.0,37.0,,RUE GABRIEL HANOTEAU,3535,83100.0,83137,Toulon,83,,,,,,,,,,,,0,1.0,Maison,100.0,5.0,565.0,5.967361,43.130683,000AT,493
2024-1019812,2024-10-17,1,Vente,300000.0,231.0,,CHE DES BONNES HERBES,0963,83200.0,83137,Toulon,83,,,,,,,,,,,,0,1.0,Maison,80.0,4.0,895.0,5.890961,43.143608,000EI,505
2024-1019963,2024-10-21,1,Vente,295100.0,65.0,B,CHE DE LA COLLINE,1690,83200.0,83137,Toulon,83,,,,,,,,,,,,0,1.0,Maison,43.0,3.0,116.0,5.924297,43.137101,000DE,501
2024-1020080,2024-11-12,1,Vente,380000.0,13.0,,RUE DU CAP COLONNA,1190,83000.0,83137,Toulon,83,,,,,,,,,,,,0,2.0,Appartement,14.0,1.0,196.0,5.931509,43.131685,000AN,479
2024-1020080,2024-11-12,1,Vente,380000.0,13.0,,RUE DU CAP COLONNA,1190,83000.0,83137,Toulon,83,,,,,,,,,,,,0,2.0,Appartement,14.0,1.0,196.0,5.931509,43.131685,000AN,479
2024-1020080,2024-11-12,1,Vente,380000.0,13.0,,RUE DU CAP COLONNA,1190,83000.0,83137,Toulon,83,,,,,,,,,,,,0,2.0,Appartement,14.0,1.0,196.0,5.931509,43.131685,000AN,479
2024-1020080,2024-11-12,1,Vente,380000.0,13.0,,RUE DU CAP COLONNA,1190,83000.0,83137,Toulon,83,,,,,,,,,,,,0,2.0,Appartement,14.0,1.0,196.0,5.931509,43.131685,000AN,479
2024-1020080,2024-11-12,1,Vente,380000.0,13.0,,RUE DU CAP COLONNA,1190,83000.0,83137,Toulon,83,,,,,,,,,,,,0,2.0,Appartement,14.0,1.0,196.0,5.931509,43.131685,000AN,479
2024-1020080,2024-11-12,1,Vente,380000.0,13.0,,RUE DU CAP COLONNA,1190,83000.0,83137,Toulon,83,,,,,,,,,,,,0,2.0,Appartement,14.0,1.0,196.0,5.931509,43.131685,000AN,479
2024-1020080,2024-11-12,1,Vente,380000.0,13.0,,RUE DU CAP COLONNA,1190,83000.0,83137,Toulon,83,,,,,,,,,,,,0,2.0,Appartement,14.0,1.0,196.0,5.931509,43.131685,000AN,479
2024-1020080,2024-11-12,1,Vente,380000.0,13.0,,RUE DU CAP COLONNA,1190,83000.0,83137,Toulon,83,,,,,,,,,,,,0,2.0,Appartement,14.0,1.0,196.0,5.931509,43.131685,000AN,479
2024-1020080,2024-11-12,1,Vente,380000.0,13.0,,RUE DU CAP COLONNA,1190,83000.0,83137,Toulon,83,,,,,,,,,,,,0,2.0,Appartement,14.0,1.0,196.0,5.931509,43.131685,000AN,479
2024-1020080,2024-11-12,1,Vente,380000.0,13.0,,RUE DU CAP COLONNA,1190,83000.0,83137,Toulon,83,,,,,,,,,,,,0,2.0,Appartement,14.0,1.0,196.0,5.931509,43.131685,000AN,479
2024-1020080,2024-11-12,1,Vente,380000.0,13.0,,RUE DU CAP COLONNA,1190,83000.0,83137,Toulon,83,,,,,,,,,,,,0,2.0,Appartement,14.0,1.0,196.0,5.931509,43.131685,000AN,479
2024-1020080,2024-11-12,1,Vente,380000.0,13.0,,RUE DU CAP COLONNA,1190,83000.0,83137,Toulon,83,,,,,,,,,,,,0,2.0,Appartement,14.0,1.0,196.0,5.931509,43.131685,000AN,479
2024-1020199,2024-11-08,1,Vente,272000.0,9005.0,,RUE DE LA TOUR D AUVERGNE,6971,83100.0,83137,Toulon,83,,,,,,,,,,,,0,1.0,Maison,68.0,3.0,299.0,5.960743,43.124075,000BE,483
2024-1020216,2024-10-29,1,Vente,225000.0,218.0,,RUE DU CAPITAINE MASSON,1200,83200.0,83137,Toulon,83,,,,,,,,,,,,0,1.0,Maison,73.0,4.0,360.0,5.894705,43.131161,000DP,493
2024-1020246,2024-08-22,1,Vente,150000.0,10.0,B,RUE MADELEINE DESIREE,4710,83200.0,83137,Toulon,83,,,,,,,,,,,,0,1.0,Maison,70.0,2.0,78.0,5.916108,43.136969,000DH,561
2024-1020276,2024-11-15,1,Vente,331000.0,135.0,,AV MIREILLE,5185,83100.0,83137,Toulon,83,,,,,,,,,,,,0,1.0,Maison,75.0,4.0,369.0,5.9725,43.12433,000BD,476
2024-1020310,2024-11-14,1,Vente,412475.0,25.0,,RUE DU GABON,3098,83200.0,83137,Toulon,83,,,,,,,,,,,,0,1.0,Maison,112.0,4.0,700.0,5.888067,43.131286,000DP,477
2024-1020310,2024-11-14,1,Vente,412475.0,25.0,,RUE DU GABON,3098,83200.0,83137,Toulon,83,,,,,,,,,,,,0,1.0,Maison,112.0,4.0,310.0,5.888067,43.131286,000DP,477
2024-1020317,2024-10-25,1,Vente,69000.0,869.0,,RUE EDOUARD HERRIOT,2511,83200.0,83137,Toulon,83,,,,,,,,,,,,0,2.0,Appartement,58.0,3.0,250.0,5.891086,43.128233,000DM,497
2024-1020317,2024-10-25,1,Vente,69000.0,869.0,,RUE EDOUARD HERRIOT,2511,83200.0,83137,Toulon,83,,,,,,,,,,,,0,2.0,Appartement,64.0,3.0,250.0,5.891086,43.128233,000DM,497
2024-1020317,2024-10-25,1,Vente,69000.0,869.0,,RUE EDOUARD HERRIOT,2511,83200.0,83137,Toulon,83,,,,,,,,,,,,0,2.0,Appartement,73.0,4.0,250.0,5.891086,43.128233,000DM,497
2024-1020410,2024-11-22,1,Vente,310000.0,33.0,,AV VAL FLEURI,6969,83000.0,83137,Toulon,83,,,,,,,,,,,,0,1.0,Maison,60.0,4.0,265.0,5.937493,43.135549,000AL,469
2024-1020448,2024-11-12,1,Vente,172900.0,16.0,,IMP DES LORIOTS,4566,83000.0,83137,Toulon,83,,,,,,,,,,,,0,1.0,Maison,37.0,2.0,122.0,5.95524,43.111797,000BS,479
2024-1020516,2024-11-18,1,Vente,477850.0,100.0,,RUE DU MONT DES OISEAUX,5260,83000.0,83137,Toulon,83,,,,,,,,,,,,0,1.0,Maison,106.0,5.0,393.0,5.958648,43.122238,000BE,473
2024-1020656,2024-11-22,1,Vente,354900.0,356.0,,CHE DE PROVENCE,6010,83100.0,83137,Toulon,83,,,,,,,,,,,,0,1.0,Maison,106.0,5.0,397.0,5.967888,43.133978,000AH,469
2024-1020682,2024-11-29,1,Vente,335000.0,151.0,,RUE ABBE DE L EPEE,0005,83100.0,83137,Toulon,83,,,,,,,,,,,,0,1.0,Maison,56.0,3.0,190.0,5.962085,43.128717,000AT,462
2024-1020692,2024-11-14,1,Vente,235000.0,88.0,,BD BOURCIER,1020,83200.0,83137,Toulon,83,,,,,,,,,,,,0,1.0,Maison,60.0,3.0,218.0,5.906168,43.138224,000DI,477
2024-1020722,2024-11-21,1,Vente,345000.0,218.0,,CHE RENE GRAILLES,6150,83200.0,83137,Toulon,83,,,,,,,,,,,,0,1.0,Maison,98.0,4.0,810.0,5.888297,43.12531,000DM,470
2024-1020740,2024-12-02,1,Vente,389850.0,440.0,,CHE DU TEMPLE,6910,83200.0,83137,Toulon,83,,,,,,,,,,,,0,1.0,Maison,119.0,5.0,528.0,5.908453,43.135794,000DK,459
2024-1020939,2024-11-29,1,Vente,231500.0,14.0,,RUE SAINTE ADELAIDE,6550,83000.0,83137,Toulon,83,,,,,,,,,,,,0,1.0,Maison,55.0,2.0,525.0,5.938353,43.130915,000AP,462
2024-1021031,2024-11-18,1,Vente,152400.0,3.0,,RUE JEAN EUGENE ROUDEN,3865,83200.0,83137,Toulon,83,,,,,,,,,,,,0,1.0,Maison,77.0,3.0,360.0,5.912673,43.139938,000DH,473
2024-1021037,2024-11-29,1,Vente,411000.0,100.0,,RUE COMMANDANT GUYON,1785,83100.0,83137,Toulon,83,,,,,,,,,,,,0,1.0,Maison,90.0,4.0,338.0,5.978369,43.133828,000AV,462
2024-1021165,2024-12-16,1,Vente,415000.0,19.0,,RUE JEANNE HACHETTE,3965,83000.0,83137,Toulon,83,,,,,,,,,,,,0,1.0,Maison,60.0,4.0,182.0,5.922515,43.135501,000CZ,445
2024-1021177,2024-12-09,1,Vente,285000.0,56.0,,QUAI COMMANDANT RIVIERE,1835,83200.0,83137,Toulon,83,,,,,,,,,,,,0,1.0,Maison,63.0,4.0,184.0,5.906103,43.134188,000DK,452
2024-1021217,2024-12-03,1,Vente,315000.0,71.0,,RUE SANDRALY,6670,83000.0,83137,Toulon,83,,,,,,,,,,,,0,1.0,Maison,54.0,5.0,133.0,5.925174,43.132923,000AN,458
2024-1021267,2024-12-16,1,Vente,121500.0,21.0,,IMP DES CHENES,1530,83200.0,83137,Toulon,83,,,,,,,,,,,,0,1.0,Maison,84.0,3.0,440.0,5.905365,43.146116,000DV,445
2024-1021284,2024-12-13,1,Vente,343350.0,129.0,,CHE BARTHELEMY FLORENT,0618,83200.0,83137,Toulon,83,,,,,,,,,,,,0,1.0,Maison,67.0,3.0,318.0,5.914015,43.148556,000DX,448
2024-1021328,2024-11-28,1,Vente,60000.0,64.0,,RUE ROSA BONHEUR,6335,83000.0,83137,Toulon,83,,,,,,,,,,,,0,1.0,Maison,47.0,3.0,335.0,5.942961,43.12669,000AR,463
2024-1021365,2024-12-16,1,Vente,410000.0,45.0,,AV ROLAND MORILLOT,6302,83000.0,83137,Toulon,83,,,,,,,,,,,,0,1.0,Maison,91.0,5.0,370.0,5.949146,43.113437,000BR,445
2024-1021590,2024-12-19,1,Vente,290000.0,13.0,,RUE JANVIER,3795,83200.0,83137,Toulon,83,,,,,,,,,,,,0,2.0,Appartement,80.0,4.0,338.0,5.913326,43.134377,000DK,442
2024-1021590,2024-12-19,1,Vente,290000.0,13.0,,RUE JANVIER,3795,83200.0,83137,Toulon,83,,,,,,,,,,,,0,2.0,Appartement,48.0,2.0,338.0,5.913326,43.134377,000DK,442
2024-1021640,2024-12-19,1,Vente,412700.0,171.0,,RUE CLIO,1636,83100.0,83137,Toulon,83,,,,,,,,,,,,0,1.0,Maison,99.0,5.0,291.0,5.98632,43.125362,000AZ,442
2024-1021804,2024-12-20,1,Vente,250000.0,53.0,,AV GENERAL BRIERE DE L ISLE,3230,83100.0,83137,Toulon,83,,,,,,,,,,,,0,1.0,Maison,48.0,3.0,159.0,5.972494,43.130308,000AX,441
2024-1021808,2024-12-30,1,Vente,280000.0,9027.0,,CHE DE L HUBAC,7027,83200.0,83137,Toulon,83,,,,,,,,,,,,0,1.0,Maison,60.0,3.0,515.0,5.918056,43.152825,000ES,431
2024-1021944,2024-12-18,1,Vente,400000.0,9.0,,RUE CANROBERT,1188,83200.0,83137,Toulon,83,,,,,,,,,,,,0,1.0,Maison,70.0,5.0,357.0,5.905941,43.139038,000DI,443
2024-1021968,2024-12-20,1,Vente,400000.0,9009.0,,CHE DE LA BOSQUETTE,1000,83200.0,83137,Toulon,83,,,,,,,,,,,,0,2.0,Appartement,72.0,5.0,760.0,5.975712,43.138238,000AD,441
2024-1021968,2024-12-20,1,Vente,400000.0,9009.0,,CHE DE LA BOSQUETTE,1000,83200.0,83137,Toulon,83,,,,,,,,,,,,0,2.0,Appartement,38.0,2.0,760.0,5.975712,43.138238,000AD,441
2024-1021999,2024-12-19,1,Vente,481040.0,230.0,,AV DES PINS,5822,83200.0,83137,Toulon,83,,,,,,,,,,,,0,1.0,Maison,89.0,4.0,600.0,5.904453,43.150542,000DY,442
2024-1022025,2024-07-12,1,Vente,305800.0,127.0,,RUE JEAN BONNET,3840,83000.0,83137,Toulon,83,,,,,,,,,,,,0,1.0,Maison,99.0,5.0,155.0,5.946191,43.126354,000AR,602
2024-1022049,2024-12-18,1,Vente,240000.0,235.0,,BD DE LA MARQUISANNE,4938,83200.0,83137,Toulon,83,,,,,,,,,,,,0,1.0,Maison,67.0,3.0,336.0,5.894815,43.131247,000DP,443
2024-1022120,2024-12-20,1,Vente,379750.0,19.0,,RUE VALES,7070,83200.0,83137,Toulon,83,,,,,,,,,,,,0,1.0,Maison,73.0,4.0,425.0,5.917595,43.135701,000CZ,441
2024-1022152,2024-12-17,1,Vente,388750.0,15.0,,RUE DES MARGUERITES,4870,83200.0,83137,Toulon,83,,,,,,,,,,,,0,1.0,Maison,100.0,3.0,297.0,5.903126,43.133412,000DL,444
2024-1022214,2024-12-28,1,Vente,246000.0,9005.0,,CHE DE LA JONQUIERE,3990,83200.0,83137,Toulon,83,,,,,,,,,,,,0,1.0,Maison,70.0,3.0,435.0,5.908014,43.145042,000DV,433
2025-414018,2025-01-07,1,Vente,260000.0,4.0,,RUE GUYNEMER,3530,83100.0,83137,Toulon,83,,,,,,,,,,,,0,1.0,Maison,76.0,3.0,571.0,5.966743,43.12638,000AX,423
2025-414023,2025-01-06,1,Vente,265000.0,61.0,,RUE LOUIS BRES,4605,83100.0,83137,Toulon,83,,,,,,,,,,,,0,1.0,Maison,68.0,3.0,425.0,5.972372,43.120106,000BD,424
2025-414073,2025-01-17,1,Vente,470450.0,1041.0,,CHE DU FORT ROUGE,2925,83200.0,83137,Toulon,83,,,,,,,,,,,,0,1.0,Maison,36.0,3.0,257.0,5.919121,43.141984,000EW,413
2025-414119,2025-01-10,1,Vente,430900.0,404.0,,CHE ARTHUR,0435,83200.0,83137,Toulon,83,,,,,,,,,,,,0,1.0,Maison,91.0,4.0,630.0,5.887818,43.129897,000DP,420
2025-414132,2025-01-06,1,Vente,264665.0,183.0,,RUE CAMILLE FLAMMARION,1160,83100.0,83137,Toulon,83,,,,,,,,,,,,0,1.0,Maison,78.0,3.0,293.0,5.963479,43.130198,000AT,424
2025-414198,2025-01-10,1,Vente,215000.0,230.0,,BD FLAMENQ,2870,83200.0,83137,Toulon,83,,,,,,,,,,,,0,1.0,Maison,84.0,4.0,152.0,5.914073,43.13342,000CZ,420
2025-414245,2025-01-16,1,Vente,270000.0,14.0,,RUE PEYRE FERRY,5710,83000.0,83137,Toulon,83,,,,,,,,,,,,0,2.0,Appartement,55.0,2.0,196.0,5.920768,43.130616,000CY,414
2025-414245,2025-01-16,1,Vente,270000.0,14.0,,RUE PEYRE FERRY,5710,83000.0,83137,Toulon,83,,,,,,,,,,,,0,2.0,Appartement,58.0,3.0,196.0,5.920768,43.130616,000CY,414
2025-414245,2025-01-16,1,Vente,270000.0,14.0,,RUE PEYRE FERRY,5710,83000.0,83137,Toulon,83,,,,,,,,,,,,0,2.0,Appartement,58.0,3.0,196.0,5.920768,43.130616,000CY,414
2025-414250,2025-01-08,1,Vente,300000.0,249.0,,RUE ANDRE CHENIER,0295,83100.0,83137,Toulon,83,,,,,,,,,,,,0,1.0,Maison,100.0,3.0,1000.0,5.960837,43.129704,000AS,422
2025-414250,2025-01-08,1,Vente,300000.0,249.0,,RUE ANDRE CHENIER,0295,83100.0,83137,Toulon,83,,,,,,,,,,,,0,1.0,Maison,100.0,3.0,1590.0,5.960837,43.129704,000AS,422
2025-414339,2025-01-23,1,Vente,325000.0,8.0,,RUE DRAGON,2390,83000.0,83137,Toulon,83,,,,,,,,,,,,0,1.0,Maison,114.0,6.0,223.0,5.943457,43.124149,000CI,407
2025-414392,2025-01-28,1,Vente,420000.0,98.0,,BD SAINT JACQUES,6490,83200.0,83137,Toulon,83,,,,,,,,,,,,0,1.0,Maison,76.0,2.0,320.0,5.90258,43.132534,000DL,402
2025-414428,2025-01-29,1,Vente,316300.0,15.0,5,CHE DE LA LOUBIERE,4575,83000.0,83137,Toulon,83,,,,,,,,,,,,0,1.0,Maison,70.0,3.0,186.0,5.942543,43.126682,000AP,401
2025-414432,2025-01-29,1,Vente,218000.0,9006.0,,IMP DES TILLEULS,6940,83100.0,83137,Toulon,83,,,,,,,,,,,,0,1.0,Maison,40.0,3.0,220.0,5.967575,43.123034,000BD,401
2025-414499,2025-01-23,1,Vente,360000.0,9006.0,F,IMP DE LA POUDRIERE,5914,83200.0,83137,Toulon,83,,,,,,,,,,,,0,1.0,Maison,82.0,3.0,227.0,5.905923,43.14094,000DV,407
2025-414499,2025-01-23,1,Vente,360000.0,9006.0,F,IMP DE LA POUDRIERE,5914,83200.0,83137,Toulon,83,,,,,,,,,,,,0,1.0,Maison,82.0,3.0,823.0,5.905923,43.14094,000DV,407
2025-414513,2025-01-16,1,Vente,456000.0,88.0,,RUE DE MONTSERRAT,5315,83200.0,83137,Toulon,83,,,,,,,,,,,,0,1.0,Maison,87.0,4.0,1025.0,5.889886,43.142592,000EI,414
2025-414520,2025-01-30,1,Vente,394000.0,136.0,,CHE SAINT PONS,6524,83200.0,83137,Toulon,83,,,,,,,,,,,,0,1.0,Maison,81.0,4.0,577.0,5.936284,43.163994,000ET,400
2025-414601,2025-01-28,1,Vente,330116.0,15.0,T,RUE REGIMBAUD,6140,83100.0,83137,Toulon,83,,,,,,,,,,,,0,1.0,Maison,50.0,3.0,132.0,5.95143,43.125313,000CH,402
2025-414695,2025-02-03,1,Vente,420000.0,21.0,,RUE RENE DARBON,6170,83000.0,83137,Toulon,83,,,,,,,,,,,,0,1.0,Maison,112.0,4.0,255.0,5.946924,43.129953,000AR,396
2025-414717,2025-01-20,1,Vente,390000.0,312.0,,CHE DU PELVOUX,5700,83200.0,83137,Toulon,83,,,,,,,,,,,,0,2.0,Appartement,88.0,3.0,435.0,5.908247,43.153397,000EP,410
2025-414748,2025-02-07,1,Vente,285000.0,102.0,,AV BRINDEJONC DES MOULINAIS,1065,83100.0,83137,Toulon,83,,,,,,,,,,,,0,1.0,Maison,60.0,3.0,448.0,5.96622,43.127598,000AX,392
2025-414758,2025-01-31,1,Vente,465000.0,91.0,,IMP DES LAVANDES,4320,83000.0,83137,Toulon,83,,21.0,,,,,,,,,,1,1.0,Maison,68.0,3.0,491.0,5.942516,43.133109,000AO,399
2025-414847,2025-01-16,1,Vente,200000.0,160.0,,CHE DE LA MARTELLE,4952,83200.0,83137,Toulon,83,,,,,,,,,,,,0,1.0,Maison,68.0,4.0,598.0,5.913249,43.153144,000EP,414
2025-414905,2025-01-24,1,Vente,300000.0,45.0,,IMP DES BUISSONS,1119,83000.0,83137,Toulon,83,,,,,,,,,,,,0,1.0,Maison,62.0,3.0,83.0,5.931463,43.107169,000BW,406
2025-414933,2025-01-31,1,Vente,500000.0,503.0,,CHE DE LA BATTERIE BASSE,0636,83000.0,83137,Toulon,83,,,,,,,,,,,,0,1.0,Maison,80.0,4.0,645.0,5.966971,43.106147,000BM,399
2025-414945,2025-01-30,1,Vente,470000.0,198.0,,AV DE LA PIVOTTE,5838,83100.0,83137,Toulon,83,,,,,,,,,,,,0,2.0,Appartement,43.0,3.0,250.0,5.970726,43.132289,000AV,400
2025-414945,2025-01-30,1,Vente,470000.0,198.0,,AV DE LA PIVOTTE,5838,83100.0,83137,Toulon,83,,,,,,,,,,,,0,2.0,Appartement,65.0,3.0,250.0,5.970726,43.132289,000AV,400
2025-415056,2025-01-30,1,Vente,360000.0,48.0,,CHE DE LA CHAPELLE NOTRE DAME,1410,83200.0,83137,Toulon,83,,,,,,,,,,,,0,1.0,Maison,95.0,4.0,650.0,5.902108,43.148019,000DY,400
2025-415115,2025-02-18,1,Vente,323000.0,5000.0,,RUE DE SIOU BLANC,6795,83100.0,83137,Toulon,83,,,,,,,,,,,,0,1.0,Maison,85.0,4.0,99.0,5.976239,43.120047,000BD,381
2025-415123,2025-01-29,1,Vente,420000.0,368.0,,AV DES ILES D OR,3705,83100.0,83137,Toulon,83,,,,,,,,,,,,0,1.0,Maison,120.0,4.0,545.0,5.975523,43.129147,000AW,401
2025-415138,2025-02-10,1,Vente,220000.0,9001.0,,RUE OCTAVE VIRGILLY,5440,83100.0,83137,Toulon,83,,,,,,,,,,,,0,2.0,Appartement,90.0,4.0,425.0,5.965877,43.128091,000AX,389
2025-415138,2025-02-10,1,Vente,220000.0,9001.0,,RUE OCTAVE VIRGILLY,5440,83100.0,83137,Toulon,83,,,,,,,,,,,,0,2.0,Appartement,90.0,4.0,425.0,5.965877,43.128091,000AX,389
2025-415147,2025-01-31,1,Vente,378000.0,30.0,,RTE NLE 8 TOULON MARSEILLE,5373,83200.0,83137,Toulon,83,,,,,,,,,,,,0,2.0,Appartement,95.0,4.0,611.0,5.88995,43.12898,000DP,399
2025-415147,2025-01-31,1,Vente,378000.0,30.0,,RTE NLE 8 TOULON MARSEILLE,5373,83200.0,83137,Toulon,83,,,,,,,,,,,,0,2.0,Appartement,95.0,4.0,611.0,5.88995,43.12898,000DP,399
2025-415155,2025-01-24,1,Vente,310000.0,226.0,,AV AMIRAL KRANTZ,0245,83100.0,83137,Toulon,83,,,,,,,,,,,,0,1.0,Maison,99.0,6.0,445.0,5.97406,43.129201,000AX,406
2025-415309,2025-02-04,1,Vente,452500.0,1072.0,,CHE DE L ORATOIRE,5470,83200.0,83137,Toulon,83,,7.0,90.73,,,,,,,,,1,1.0,Maison,81.0,4.0,780.0,5.895679,43.149051,000DZ,395
2025-415360,2025-02-07,1,Vente,239900.0,14.0,,TRA CHAMP MILLE,1375,83200.0,83137,Toulon,83,,,,,,,,,,,,0,1.0,Maison,66.0,3.0,266.0,5.906876,43.136885,000DI,392
2025-415463,2025-02-07,1,Vente,285000.0,59.0,,QUAI EMILE GRENIER,2584,83200.0,83137,Toulon,83,,,,,,,,,,,,0,1.0,Maison,50.0,2.0,287.0,5.907224,43.136616,000DI,392
2025-415504,2025-02-10,1,Vente,394815.0,230.0,,AV LA BOURDONNAIS,1025,83100.0,83137,Toulon,83,,,,,,,,,,,,0,1.0,Maison,80.0,4.0,325.0,5.97723,43.133052,000AV,389
2025-415559,2025-02-14,1,Vente,380000.0,96.0,,RUE CHARLOUN RIEU,1480,83000.0,83137,Toulon,83,,,,,,,,,,,,0,1.0,Maison,82.0,4.0,376.0,5.967579,43.120398,000BH,385
2025-415575,2025-02-07,1,Vente,425760.0,1871.0,,AV COLONEL PICOT,1755,83100.0,83137,Toulon,83,,,,,,,,,,,,0,1.0,Maison,95.0,4.0,472.0,5.976422,43.133342,000AV,392
2025-415582,2025-02-20,1,Vente,330000.0,9001.0,,IMP ROUX,6395,83100.0,83137,Toulon,83,,,,,,,,,,,,0,1.0,Maison,95.0,4.0,315.0,5.956789,43.129002,000AS,379
2025-415660,2025-02-18,1,Vente,180000.0,460.0,,BD DELESCLUZE,2135,83200.0,83137,Toulon,83,,,,,,,,,,,,0,1.0,Maison,65.0,3.0,364.0,5.900617,43.137992,000DS,381
2025-415688,2025-02-26,1,Vente,473700.0,15.0,B,AV DE LA PIVOTTE,5838,83100.0,83137,Toulon,83,,,,,,,,,,,,0,1.0,Maison,76.0,3.0,472.0,5.969713,43.13251,000AT,373
2025-415729,2025-02-24,1,Vente,365000.0,211.0,,AV CHARLES MARENCO,1465,83200.0,83137,Toulon,83,,,,,,,,,,,,0,1.0,Maison,92.0,4.0,638.0,5.897618,43.148173,000EH,375
2025-415746,2025-02-21,1,Vente,362000.0,804.0,,AV COLONEL PICOT,1755,83100.0,83137,Toulon,83,,,,,,,,,,,,0,1.0,Maison,120.0,5.0,500.0,5.965795,43.128262,000AX,378
2025-415849,2025-02-20,1,Vente,290000.0,489.0,F,CHE DE LA MAJOURANE,4766,83200.0,83137,Toulon,83,,,,,,,,,,,,0,1.0,Maison,62.0,3.0,298.0,5.894996,43.153174,000EL,379
2025-415864,2025-03-03,1,Vente,474965.0,178.0,,AV DE L ERMITAGE,2630,83200.0,83137,Toulon,83,,,,,,,,,,,,0,1.0,Maison,120.0,3.0,555.0,5.948754,43.134645,000AK,368
2025-415869,2025-02-20,1,Vente,250000.0,85.0,,IMP DE LA FAUVETTE SIBLAS (AO),2785,83000.0,83137,Toulon,83,,,,,,,,,,,,0,2.0,Appartement,64.0,3.0,880.0,5.942521,43.13289,000AO,379
2025-415869,2025-02-20,1,Vente,250000.0,85.0,,IMP DE LA FAUVETTE SIBLAS (AO),2785,83000.0,83137,Toulon,83,,,,,,,,,,,,0,2.0,Appartement,56.0,3.0,880.0,5.942521,43.13289,000AO,379
2025-415903,2025-02-28,1,Vente,365000.0,9020.0,,AV DES FILS MARESCOT,2855,83200.0,83137,Toulon,83,,,,,,,,,,,,0,1.0,Maison,72.0,4.0,775.0,5.903765,43.152991,000DY,371
2025-415968,2025-03-05,1,Vente,150000.0,4.0,,RUE MADELEINE DESIREE,4710,83200.0,83137,Toulon,83,,,,,,,,,,,,0,2.0,Appartement,35.0,2.0,278.0,5.915874,43.136567,000DH,366
2025-415968,2025-03-05,1,Vente,150000.0,4.0,,RUE MADELEINE DESIREE,4710,83200.0,83137,Toulon,83,,,,,,,,,,,,0,2.0,Appartement,35.0,2.0,278.0,5.915874,43.136567,000DH,366
2025-415975,2025-02-17,1,Vente,353000.0,818.0,,CHE DE L ORATOIRE,5470,83200.0,83137,Toulon,83,,,,,,,,,,,,0,1.0,Maison,75.0,3.0,515.0,5.896501,43.146755,000EH,382
2025-416064,2025-02-19,1,Vente,375000.0,129.0,,RUE DAUMIER,2092,83200.0,83137,Toulon,83,,,,,,,,,,,,0,1.0,Maison,70.0,4.0,650.0,5.977651,43.138713,000AD,380
2025-416166,2025-03-11,2,Vente,300000.0,9.0,,RUE FAVIER,2790,83100.0,83137,Toulon,83,,,,,,,,,,,,0,1.0,Maison,62.0,4.0,690.0,5.954965,43.125435,000CH,360
2025-416168,2025-03-05,1,Vente,235000.0,3.0,,RUE DE LA MARTINIQUE,4975,83200.0,83137,Toulon,83,,,,,,,,,,,,0,1.0,Maison,73.0,4.0,325.0,5.903665,43.135177,000DI,366
2025-416176,2025-03-04,1,Vente,495000.0,18.0,,LOT LA VALBOURDINE,A355,83200.0,83137,Toulon,83,,,,,,,,,,,,0,1.0,Maison,115.0,5.0,685.0,5.919641,43.139406,000DE,367
2025-416240,2025-03-06,1,Vente,386400.0,86.0,,RUE DE CRIMEE,1990,83200.0,83137,Toulon,83,,,,,,,,,,,,0,1.0,Maison,118.0,5.0,452.0,5.900611,43.143821,000EH,365
2025-416240,2025-03-06,1,Vente,386400.0,86.0,,RUE DE CRIMEE,1990,83200.0,83137,Toulon,83,,,,,,,,,,,,0,1.0,Maison,24.0,2.0,452.0,5.900611,43.143821,000EH,365
2025-416299,2025-03-18,1,Vente,455000.0,673.0,A,RTE DU FARON,2775,83200.0,83137,Toulon,83,,,,,,,,,,,,0,1.0,Maison,53.0,3.0,550.0,5.938116,43.139039,000EY,353
2025-416299,2025-03-18,1,Vente,455000.0,673.0,A,RTE DU FARON,2775,83200.0,83137,Toulon,83,,,,,,,,,,,,0,1.0,Maison,53.0,3.0,310.0,5.938116,43.139039,000EY,353
2025-416308,2025-02-25,1,Vente,240000.0,189.0,,CHE RENE GRAILLES,6150,83200.0,83137,Toulon,83,,,,,,,,,,,,0,1.0,Maison,72.0,3.0,1067.0,5.888871,43.125518,000DM,374
2025-416445,2025-03-20,1,Vente,444000.0,65.0,,BD CLAMOUR,1580,83000.0,83137,Toulon,83,,,,,,,,,,,,0,1.0,Maison,80.0,4.0,466.0,5.960942,43.11692,000BP,351
2025-416458,2025-03-18,1,Vente,330000.0,55.0,,BD LOUIS CARLES,4610,83200.0,83137,Toulon,83,,,,,,,,,,,,0,1.0,Maison,73.0,3.0,367.0,5.976617,43.135467,000AV,353
2025-416508,2025-03-11,1,Vente,345000.0,216.0,,AV DE LA RESISTANCE,6180,83000.0,83137,Toulon,83,,,,,,,,,,,,0,1.0,Maison,118.0,4.0,248.0,5.947037,43.116711,000BR,360
2025-416553,2025-03-14,1,Vente,269000.0,347.0,,AV DE LA RESISTANCE,6180,83000.0,83137,Toulon,83,,,,,,,,,,,,0,2.0,Appartement,45.0,2.0,212.0,5.948615,43.116127,000BR,357
2025-416553,2025-03-14,1,Vente,269000.0,347.0,,AV DE LA RESISTANCE,6180,83000.0,83137,Toulon,83,,,,,,,,,,,,0,2.0,Appartement,30.0,1.0,212.0,5.948615,43.116127,000BR,357
2025-416670,2025-03-21,1,Vente,495000.0,20.0,,PL ADOLPHE BEGUIN,0045,83000.0,83137,Toulon,83,,,,,,,,,,,,0,1.0,Maison,103.0,4.0,1000.0,5.96135,43.115595,000BN,350
2025-416756,2025-03-27,1,Vente,280000.0,34.0,Q,RUE KLEBER,4185,83000.0,83137,Toulon,83,,,,,,,,,,,,0,1.0,Maison,55.0,3.0,140.0,5.951414,43.128699,000AR,344
2025-416786,2025-03-06,1,Vente,150000.0,36.0,,RUE AUGUSTIN DAUMAS,0525,83000.0,83137,Toulon,83,,,,,,,,,,,,0,2.0,Appartement,43.0,2.0,63.0,5.932319,43.121052,000CM,365
2025-416786,2025-03-06,1,Vente,150000.0,36.0,,RUE AUGUSTIN DAUMAS,0525,83000.0,83137,Toulon,83,,,,,,,,,,,,0,2.0,Appartement,37.0,2.0,63.0,5.932319,43.121052,000CM,365
2025-416786,2025-03-06,1,Vente,150000.0,36.0,,RUE AUGUSTIN DAUMAS,0525,83000.0,83137,Toulon,83,,,,,,,,,,,,0,2.0,Appartement,42.0,2.0,63.0,5.932319,43.121052,000CM,365
2025-416786,2025-03-06,1,Vente,150000.0,36.0,,RUE AUGUSTIN DAUMAS,0525,83000.0,83137,Toulon,83,,,,,,,,,,,,0,2.0,Appartement,43.0,2.0,63.0,5.932319,43.121052,000CM,365
2025-416786,2025-03-06,1,Vente,150000.0,36.0,,RUE AUGUSTIN DAUMAS,0525,83000.0,83137,Toulon,83,,,,,,,,,,,,0,2.0,Appartement,42.0,2.0,63.0,5.932319,43.121052,000CM,365
2025-416786,2025-03-06,1,Vente,150000.0,36.0,,RUE AUGUSTIN DAUMAS,0525,83000.0,83137,Toulon,83,,,,,,,,,,,,0,2.0,Appartement,42.0,2.0,63.0,5.932319,43.121052,000CM,365
2025-416855,2025-03-24,1,Vente,292500.0,9005.0,,IMP BERNARD,0833,83100.0,83137,Toulon,83,,,,,,,,,,,,0,1.0,Maison,96.0,4.0,332.0,5.961197,43.128328,000AS,347
2025-416873,2025-03-28,1,Vente,315000.0,85.0,,RUE ROLLAND GARROS,6300,83100.0,83137,Toulon,83,,,,,,,,,,,,0,1.0,Maison,72.0,4.0,285.0,5.967483,43.127776,000AX,343
2025-416915,2025-03-07,1,Vente,420000.0,6.0,,RUE CAMILLE CHAIGNEAU,1155,83000.0,83137,Toulon,83,,,,,,,,,,,,0,1.0,Maison,66.0,4.0,1025.0,5.9353,43.131346,000AO,364
2025-416948,2025-03-28,1,Vente,490000.0,15.0,,RUE MAIRAUD,4740,83000.0,83137,Toulon,83,,,,,,,,,,,,0,2.0,Appartement,19.0,1.0,59.0,5.935269,43.122605,000CL,343
2025-416948,2025-03-28,1,Vente,490000.0,15.0,,RUE MAIRAUD,4740,83000.0,83137,Toulon,83,,,,,,,,,,,,0,2.0,Appartement,25.0,1.0,59.0,5.935269,43.122605,000CL,343
2025-416948,2025-03-28,1,Vente,490000.0,15.0,,RUE MAIRAUD,4740,83000.0,83137,Toulon,83,,,,,,,,,,,,0,2.0,Appartement,25.0,1.0,59.0,5.935269,43.122605,000CL,343
2025-416948,2025-03-28,1,Vente,490000.0,15.0,,RUE MAIRAUD,4740,83000.0,83137,Toulon,83,,,,,,,,,,,,0,2.0,Appartement,12.0,0.0,59.0,5.935269,43.122605,000CL,343
2025-416948,2025-03-28,1,Vente,490000.0,15.0,,RUE MAIRAUD,4740,83000.0,83137,Toulon,83,,,,,,,,,,,,0,2.0,Appartement,13.0,1.0,59.0,5.935269,43.122605,000CL,343
2025-416948,2025-03-28,1,Vente,490000.0,1.0,B,TRA LIRETTE,4555,83000.0,83137,Toulon,83,,,,,,,,,,,,0,2.0,Appartement,54.0,2.0,79.0,5.935227,43.122615,000CL,343
2025-416948,2025-03-28,1,Vente,490000.0,1.0,B,TRA LIRETTE,4555,83000.0,83137,Toulon,83,,,,,,,,,,,,0,2.0,Appartement,20.0,1.0,79.0,5.935227,43.122615,000CL,343
2025-416948,2025-03-28,1,Vente,490000.0,1.0,B,TRA LIRETTE,4555,83000.0,83137,Toulon,83,,,,,,,,,,,,0,2.0,Appartement,21.0,1.0,79.0,5.935227,43.122615,000CL,343
2025-416948,2025-03-28,1,Vente,490000.0,1.0,B,TRA LIRETTE,4555,83000.0,83137,Toulon,83,,,,,,,,,,,,0,2.0,Appartement,54.0,2.0,79.0,5.935227,43.122615,000CL,343
2025-416948,2025-03-28,1,Vente,490000.0,1.0,B,TRA LIRETTE,4555,83000.0,83137,Toulon,83,,,,,,,,,,,,0,2.0,Appartement,36.0,1.0,79.0,5.935227,43.122615,000CL,343
2025-417110,2025-03-28,1,Vente,360000.0,243.0,,RUE DANIELLE CASANOVA,2067,83200.0,83137,Toulon,83,,,,,,,,,,,,0,1.0,Maison,80.0,3.0,340.0,5.90062,43.133566,000DL,343
2025-417123,2025-03-31,1,Vente,315320.0,9100.0,,CHE DU JONQUET,3985,83200.0,83137,Toulon,83,,,,,,,,,,,,0,1.0,Maison,76.0,4.0,189.0,5.910228,43.144385,000DW,340
2025-417136,2025-03-21,1,Vente,500000.0,198.0,C,CHE DE L HUBAC,7027,83200.0,83137,Toulon,83,,,,,,,,,,,,0,1.0,Maison,86.0,4.0,865.0,5.918238,43.15279,000ES,350
2025-417156,2025-03-13,1,Vente,474550.0,107.0,,CHE DE FORGENTIER,2900,83200.0,83137,Toulon,83,,,,,,,,,,,,0,2.0,Appartement,43.0,2.0,245.0,5.903476,43.133057,000DL,358
2025-417156,2025-03-13,1,Vente,474550.0,107.0,,CHE DE FORGENTIER,2900,83200.0,83137,Toulon,83,,,,,,,,,,,,0,2.0,Appartement,42.0,2.0,245.0,5.903476,43.133057,000DL,358
2025-417156,2025-03-13,1,Vente,474550.0,107.0,,CHE DE FORGENTIER,2900,83200.0,83137,Toulon,83,,,,,,,,,,,,0,2.0,Appartement,42.0,2.0,245.0,5.903476,43.133057,000DL,358
2025-417156,2025-03-13,1,Vente,474550.0,107.0,,CHE DE FORGENTIER,2900,83200.0,83137,Toulon,83,,,,,,,,,,,,0,2.0,Appartement,44.0,2.0,245.0,5.903476,43.133057,000DL,358
2025-417156,2025-03-13,1,Vente,474550.0,107.0,,CHE DE FORGENTIER,2900,83200.0,83137,Toulon,83,,,,,,,,,,,,0,1.0,Maison,52.0,2.0,245.0,5.903476,43.133057,000DL,358
2025-417178,2025-04-11,1,Vente,484750.0,209.0,,AV BELLEVUE,0795,83200.0,83137,Toulon,83,,,,,,,,,,,,0,1.0,Maison,87.0,4.0,520.0,5.901384,43.152641,000EM,329
2025-417192,2025-04-07,1,Vente,295000.0,45.0,,RUE CHALLIER,1366,83000.0,83137,Toulon,83,,,,,,,,,,,,0,1.0,Maison,70.0,4.0,183.0,5.941158,43.133235,000AO,333
2025-417271,2025-04-07,1,Vente,475000.0,89.0,,CHE DE LA COLLINE,1690,83200.0,83137,Toulon,83,,,,,,,,,,,,0,1.0,Maison,44.0,3.0,235.0,5.924385,43.137257,000DE,333
2025-417271,2025-04-07,1,Vente,475000.0,65.0,A,CHE DE LA COLLINE,1690,83200.0,83137,Toulon,83,,,,,,,,,,,,0,1.0,Maison,42.0,2.0,425.0,5.924269,43.137197,000DE,333
2025-417331,2025-04-16,1,Vente,368675.0,50.0,,RUE DE CASTELLAS,1272,83200.0,83137,Toulon,83,,,,,,,,,,,,0,1.0,Maison,51.0,3.0,330.0,5.911597,43.150704,000DX,324
2025-417523,2025-03-20,1,Vente,265000.0,1831.0,,AV DES MOULINS,5335,83200.0,83137,Toulon,83,,,,,,,,,,,,0,1.0,Maison,55.0,3.0,395.0,5.914832,43.152699,000DX,351
2025-417544,2025-03-24,1,Vente,380000.0,123.0,,AV DES ILES D OR,3705,83100.0,83137,Toulon,83,,,,,,,,,,,,0,1.0,Maison,75.0,4.0,556.0,5.976475,43.131038,000AW,347
2025-417669,2025-04-14,1,Vente,330000.0,8.0,,RUE MAISSIN,4750,83000.0,83137,Toulon,83,,,,,,,,,,,,0,2.0,Appartement,81.0,3.0,315.0,5.942412,43.122368,000CI,326
2025-417669,2025-04-14,1,Vente,330000.0,8.0,,RUE MAISSIN,4750,83000.0,83137,Toulon,83,,,,,,,,,,,,0,2.0,Appartement,50.0,3.0,315.0,5.942412,43.122368,000CI,326
2025-417735,2025-04-15,1,Vente,440000.0,27.0,,RUE DE SIOU BLANC,6795,83100.0,83137,Toulon,83,,,,,,,,,,,,0,1.0,Maison,121.0,5.0,637.0,5.976497,43.119915,000BC,325
2025-417768,2025-04-17,1,Vente,360000.0,128.0,,VC BEAU SEJOUR,0720,83200.0,83137,Toulon,83,,,,,,,,,,,,0,1.0,Maison,92.0,4.0,505.0,5.93086,43.13654,000AM,323
2025-417848,2025-04-24,1,Vente,465000.0,74.0,,BD DOCTEUR BOURGAREL,2230,83000.0,83137,Toulon,83,,,,,,,,,,,,0,1.0,Maison,112.0,5.0,375.0,5.979848,43.112416,000BK,316
2025-417959,2025-04-17,1,Vente,285000.0,300.0,L,RUE DES GENEVRIERS,3317,83100.0,83137,Toulon,83,,,,,,,,,,,,0,1.0,Maison,92.0,4.0,153.0,5.98341,43.121441,000AZ,323
2025-418021,2025-04-09,1,Vente,300000.0,25.0,,AV SGT GABRIEL JOURDAN,6740,83100.0,83137,Toulon,83,,,,,,,,,,,,0,1.0,Maison,60.0,3.0,292.0,5.976552,43.13053,000AW,331
2025-418130,2025-04-23,1,Vente,360000.0,33.0,,AV COMMANDANT JEAN LOSTE,1804,83100.0,83137,Toulon,83,,,,,,,,,,,,0,1.0,Maison,90.0,6.0,525.0,5.970013,43.126454,000AX,317
2025-418206,2025-04-29,1,Vente,403000.0,621.0,,BD MARECHAL JOFFRE,4830,83100.0,83137,Toulon,83,,,,,,,,,,,,0,2.0,Appartement,37.0,2.0,168.0,5.955327,43.124681,000CH,311
2025-418206,2025-04-29,1,Vente,403000.0,621.0,,BD MARECHAL JOFFRE,4830,83100.0,83137,Toulon,83,,,,,,,,,,,,0,2.0,Appartement,37.0,2.0,168.0,5.955327,43.124681,000CH,311
2025-418206,2025-04-29,1,Vente,403000.0,621.0,,BD MARECHAL JOFFRE,4830,83100.0,83137,Toulon,83,,,,,,,,,,,,0,2.0,Appartement,40.0,2.0,168.0,5.955327,43.124681,000CH,311
2025-418206,2025-04-29,1,Vente,403000.0,621.0,,BD MARECHAL JOFFRE,4830,83100.0,83137,Toulon,83,,,,,,,,,,,,0,2.0,Appartement,40.0,2.0,168.0,5.955327,43.124681,000CH,311
2025-418206,2025-04-29,1,Vente,403000.0,621.0,,BD MARECHAL JOFFRE,4830,83100.0,83137,Toulon,83,,,,,,,,,,,,0,2.0,Appartement,37.0,2.0,168.0,5.955327,43.124681,000CH,311
2025-418206,2025-04-29,1,Vente,403000.0,621.0,,BD MARECHAL JOFFRE,4830,83100.0,83137,Toulon,83,,,,,,,,,,,,0,2.0,Appartement,40.0,2.0,168.0,5.955327,43.124681,000CH,311
2025-418291,2025-04-23,1,Vente,215500.0,72.0,,AV DE LOCARNO,4560,83100.0,83137,Toulon,83,,,,,,,,,,,,0,1.0,Maison,80.0,4.0,170.0,5.949343,43.121267,000CE,317
2025-418295,2025-04-30,1,Vente,310000.0,118.0,,IMP CLEMENCE,1631,83200.0,83137,Toulon,83,,,,,,,,,,,,0,1.0,Maison,34.0,1.0,300.0,5.922857,43.137852,000DE,310
2025-418341,2025-04-14,1,Vente,112200.0,96.0,,CHE DE FORGENTIER,2900,83200.0,83137,Toulon,83,,,,,,,,,,,,0,1.0,Maison,95.0,2.0,67.0,5.903917,43.133104,000DK,326
2025-418401,2025-04-28,1,Vente,245000.0,165.0,,RTE DU VAL D ARDENE,7033,83200.0,83137,Toulon,83,,,,,,,,,,,,0,1.0,Maison,74.0,3.0,500.0,5.919372,43.159644,000EP,312
2025-418401,2025-04-28,1,Vente,245000.0,165.0,,RTE DU VAL D ARDENE,7033,83200.0,83137,Toulon,83,,,,,,,,,,,,0,1.0,Maison,74.0,3.0,479.0,5.919372,43.159644,000EP,312
2025-418436,2025-04-28,1,Vente,390000.0,2.0,,RUE FRAVEGA,2801,83000.0,83137,Toulon,83,,,,,,,,,,,,0,1.0,Maison,81.0,5.0,74.0,5.9389,43.108489,000BV,312
2025-418532,2025-04-29,1,Vente,275000.0,257.0,,AV FORBIN,2893,83100.0,83137,Toulon,83,,,,,,,,,,,,0,2.0,Appartement,55.0,3.0,246.0,5.967544,43.124381,000AX,311
2025-418532,2025-04-29,1,Vente,275000.0,257.0,,AV FORBIN,2893,83100.0,83137,Toulon,83,,,,,,,,,,,,0,2.0,Appartement,43.0,3.0,246.0,5.967544,43.124381,000AX,311
2025-418621,2025-04-28,1,Vente,500000.0,219.0,,AV PIERRE RENAUDEL,5790,83200.0,83137,Toulon,83,,,,,,,,,,,,0,2.0,Appartement,79.0,4.0,437.0,5.907971,43.138762,000DI,312
2025-418621,2025-04-28,1,Vente,500000.0,219.0,,AV PIERRE RENAUDEL,5790,83200.0,83137,Toulon,83,,,,,,,,,,,,0,2.0,Appartement,38.0,2.0,437.0,5.907971,43.138762,000DI,312
2025-418622,2025-05-12,1,Vente,378350.0,198.0,,AV CHIARISOLI BEY,1560,83200.0,83137,Toulon,83,,,,,,,,,,,,0,1.0,Maison,108.0,4.0,374.0,5.895549,43.141317,000DT,298
